[
  {
    "id": "4_19민주묘지",
    "name": "4.19민주묘지역",
    "aliases": [
      "4.19민주묘지"
    ],
    "lines": [
      "우이신설선"
    ],
    "latitude": 37.649502,
    "longitude": 127.013684
  },
  {
    "id": "가능",
    "name": "가능역",
    "aliases": [
      "가능"
    ],
    "lines": [
      "경원선"
    ],
    "latitude": 37.748577,
    "longitude": 127.044213
  },
  {
    "id": "가락시장",
    "name": "가락시장역",
    "aliases": [
      "가락시장"
    ],
    "lines": [
      "3호선",
      "8호선"
    ],
    "latitude": 37.492566,
    "longitude": 127.118077
  },
  {
    "id": "가산디지털단지",
    "name": "가산디지털단지역",
    "aliases": [
      "가산디지털단지"
    ],
    "lines": [
      "7호선",
      "경부선"
    ],
    "latitude": 37.480959,
    "longitude": 126.882619
  },
  {
    "id": "가양",
    "name": "가양역",
    "aliases": [
      "가양"
    ],
    "lines": [
      "9호선"
    ],
    "latitude": 37.561391,
    "longitude": 126.854456
  },
  {
    "id": "가오리",
    "name": "가오리역",
    "aliases": [
      "가오리"
    ],
    "lines": [
      "우이신설선"
    ],
    "latitude": 37.641537,
    "longitude": 127.016789
  },
  {
    "id": "가재울",
    "name": "가재울역",
    "aliases": [
      "가재울"
    ],
    "lines": [
      "인천2호선"
    ],
    "latitude": 37.484192,
    "longitude": 126.683673
  },
  {
    "id": "가정_루원시티",
    "name": "가정(루원시티)역",
    "aliases": [
      "가정(루원시티)"
    ],
    "lines": [
      "인천2호선"
    ],
    "latitude": 37.524649,
    "longitude": 126.675539
  },
  {
    "id": "가정중앙시장",
    "name": "가정중앙시장역",
    "aliases": [
      "가정중앙시장"
    ],
    "lines": [
      "인천2호선"
    ],
    "latitude": 37.517054,
    "longitude": 126.676672
  },
  {
    "id": "가좌",
    "name": "가좌역",
    "aliases": [
      "가좌"
    ],
    "lines": [
      "경의중앙선"
    ],
    "latitude": 37.568491,
    "longitude": 126.915487
  },
  {
    "id": "가천대",
    "name": "가천대역",
    "aliases": [
      "가천대"
    ],
    "lines": [
      "분당선"
    ],
    "latitude": 37.448605,
    "longitude": 127.126697
  },
  {
    "id": "가평",
    "name": "가평역",
    "aliases": [
      "가평"
    ],
    "lines": [
      "경춘선"
    ],
    "latitude": 37.814536,
    "longitude": 127.510739
  },
  {
    "id": "간석",
    "name": "간석역",
    "aliases": [
      "간석"
    ],
    "lines": [
      "경인선"
    ],
    "latitude": 37.464737,
    "longitude": 126.694181
  },
  {
    "id": "간석오거리",
    "name": "간석오거리역",
    "aliases": [
      "간석오거리"
    ],
    "lines": [
      "인천1호선"
    ],
    "latitude": 37.467048,
    "longitude": 126.707938
  },
  {
    "id": "갈매",
    "name": "갈매역",
    "aliases": [
      "갈매"
    ],
    "lines": [
      "경춘선"
    ],
    "latitude": 37.634118,
    "longitude": 127.114757
  },
  {
    "id": "갈산",
    "name": "갈산역",
    "aliases": [
      "갈산"
    ],
    "lines": [
      "인천1호선"
    ],
    "latitude": 37.517268,
    "longitude": 126.721514
  },
  {
    "id": "강남구청",
    "name": "강남구청역",
    "aliases": [
      "강남구청"
    ],
    "lines": [
      "7호선",
      "분당선"
    ],
    "latitude": 37.517324,
    "longitude": 127.041203
  },
  {
    "id": "강남대",
    "name": "강남대역",
    "aliases": [
      "강남대"
    ],
    "lines": [
      "에버라인선"
    ],
    "latitude": 37.270161,
    "longitude": 127.126033
  },
  {
    "id": "강남",
    "name": "강남역",
    "aliases": [
      "강남"
    ],
    "lines": [
      "2호선",
      "신분당선"
    ],
    "latitude": 37.497414,
    "longitude": 127.028008
  },
  {
    "id": "강동구청",
    "name": "강동구청역",
    "aliases": [
      "강동구청"
    ],
    "lines": [
      "8호선"
    ],
    "latitude": 37.530341,
    "longitude": 127.120508
  },
  {
    "id": "강동",
    "name": "강동역",
    "aliases": [
      "강동"
    ],
    "lines": [
      "5호선"
    ],
    "latitude": 37.535804,
    "longitude": 127.132481
  },
  {
    "id": "강매",
    "name": "강매역",
    "aliases": [
      "강매"
    ],
    "lines": [
      "경의중앙선"
    ],
    "latitude": 37.612314,
    "longitude": 126.843223
  },
  {
    "id": "강변_동서울터미널",
    "name": "강변(동서울터미널)역",
    "aliases": [
      "강변(동서울터미널)"
    ],
    "lines": [
      "2호선"
    ],
    "latitude": 37.535095,
    "longitude": 127.094681
  },
  {
    "id": "강일",
    "name": "강일역",
    "aliases": [
      "강일"
    ],
    "lines": [
      "5호선"
    ],
    "latitude": 37.55749,
    "longitude": 127.17593
  },
  {
    "id": "강촌",
    "name": "강촌역",
    "aliases": [
      "강촌"
    ],
    "lines": [
      "경춘선"
    ],
    "latitude": 37.805723,
    "longitude": 127.634146
  },
  {
    "id": "개롱",
    "name": "개롱역",
    "aliases": [
      "개롱"
    ],
    "lines": [
      "5호선"
    ],
    "latitude": 37.498079,
    "longitude": 127.13482
  },
  {
    "id": "개봉",
    "name": "개봉역",
    "aliases": [
      "개봉"
    ],
    "lines": [
      "경인선"
    ],
    "latitude": 37.494594,
    "longitude": 126.85968
  },
  {
    "id": "개포동",
    "name": "개포동역",
    "aliases": [
      "개포동"
    ],
    "lines": [
      "분당선"
    ],
    "latitude": 37.489116,
    "longitude": 127.06614
  },
  {
    "id": "개화산",
    "name": "개화산역",
    "aliases": [
      "개화산"
    ],
    "lines": [
      "5호선"
    ],
    "latitude": 37.572399,
    "longitude": 126.806171
  },
  {
    "id": "개화",
    "name": "개화역",
    "aliases": [
      "개화"
    ],
    "lines": [
      "9호선"
    ],
    "latitude": 37.578608,
    "longitude": 126.798153
  },
  {
    "id": "거여",
    "name": "거여역",
    "aliases": [
      "거여"
    ],
    "lines": [
      "5호선"
    ],
    "latitude": 37.493105,
    "longitude": 127.14415
  },
  {
    "id": "건대입구",
    "name": "건대입구역",
    "aliases": [
      "건대입구"
    ],
    "lines": [
      "2호선",
      "7호선"
    ],
    "latitude": 37.540579,
    "longitude": 127.070101
  },
  {
    "id": "걸포북변",
    "name": "걸포북변역",
    "aliases": [
      "걸포북변"
    ],
    "lines": [
      "김포골드라인"
    ],
    "latitude": 37.63165,
    "longitude": 126.705975
  },
  {
    "id": "검단사거리",
    "name": "검단사거리역",
    "aliases": [
      "검단사거리"
    ],
    "lines": [
      "인천2호선"
    ],
    "latitude": 37.60185,
    "longitude": 126.657108
  },
  {
    "id": "검단오류_검단산업단지",
    "name": "검단오류(검단산업단지)역",
    "aliases": [
      "검단오류(검단산업단지)"
    ],
    "lines": [
      "인천2호선"
    ],
    "latitude": 37.594877,
    "longitude": 126.627178
  },
  {
    "id": "검단호수공원",
    "name": "검단호수공원역",
    "aliases": [
      "검단호수공원"
    ],
    "lines": [
      "인천1호선"
    ],
    "latitude": 37.60244,
    "longitude": 126.688566
  },
  {
    "id": "검바위",
    "name": "검바위역",
    "aliases": [
      "검바위"
    ],
    "lines": [
      "인천2호선"
    ],
    "latitude": 37.561405,
    "longitude": 126.677566
  },
  {
    "id": "검암",
    "name": "검암역",
    "aliases": [
      "검암"
    ],
    "lines": [
      "공항철도1호선",
      "인천2호선"
    ],
    "latitude": 37.568879,
    "longitude": 126.674847
  },
  {
    "id": "경기광주",
    "name": "경기광주역",
    "aliases": [
      "경기광주"
    ],
    "lines": [
      "경강선"
    ],
    "latitude": 37.399907,
    "longitude": 127.25263
  },
  {
    "id": "경기도청북부청사",
    "name": "경기도청북부청사역",
    "aliases": [
      "경기도청북부청사"
    ],
    "lines": [
      "의정부선"
    ],
    "latitude": 37.75059,
    "longitude": 127.071495
  },
  {
    "id": "경마공원",
    "name": "경마공원역",
    "aliases": [
      "경마공원"
    ],
    "lines": [
      "과천선"
    ],
    "latitude": 37.443885,
    "longitude": 127.007888
  },
  {
    "id": "경복궁_정부서울청사",
    "name": "경복궁(정부서울청사)역",
    "aliases": [
      "경복궁(정부서울청사)"
    ],
    "lines": [
      "3호선"
    ],
    "latitude": 37.575762,
    "longitude": 126.97353
  },
  {
    "id": "경인교대입구",
    "name": "경인교대입구역",
    "aliases": [
      "경인교대입구"
    ],
    "lines": [
      "인천1호선"
    ],
    "latitude": 37.538157,
    "longitude": 126.722597
  },
  {
    "id": "경전철의정부",
    "name": "경전철의정부역",
    "aliases": [
      "경전철의정부"
    ],
    "lines": [
      "의정부선"
    ],
    "latitude": 37.737202,
    "longitude": 127.043257
  },
  {
    "id": "경찰병원",
    "name": "경찰병원역",
    "aliases": [
      "경찰병원"
    ],
    "lines": [
      "3호선"
    ],
    "latitude": 37.495918,
    "longitude": 127.12454
  },
  {
    "id": "계산",
    "name": "계산역",
    "aliases": [
      "계산"
    ],
    "lines": [
      "인천1호선"
    ],
    "latitude": 37.543238,
    "longitude": 126.728128
  },
  {
    "id": "계양",
    "name": "계양역",
    "aliases": [
      "계양"
    ],
    "lines": [
      "공항철도1호선",
      "인천1호선"
    ],
    "latitude": 37.571556,
    "longitude": 126.73604
  },
  {
    "id": "고덕",
    "name": "고덕역",
    "aliases": [
      "고덕"
    ],
    "lines": [
      "5호선"
    ],
    "latitude": 37.555004,
    "longitude": 127.154151
  },
  {
    "id": "고려대_종암",
    "name": "고려대(종암)역",
    "aliases": [
      "고려대(종암)"
    ],
    "lines": [
      "6호선"
    ],
    "latitude": 37.590508,
    "longitude": 127.036296
  },
  {
    "id": "고색",
    "name": "고색역",
    "aliases": [
      "고색"
    ],
    "lines": [
      "수인선"
    ],
    "latitude": 37.24963,
    "longitude": 126.980248
  },
  {
    "id": "고속터미널",
    "name": "고속터미널역",
    "aliases": [
      "고속터미널"
    ],
    "lines": [
      "3호선",
      "7호선",
      "9호선"
    ],
    "latitude": 37.504746,
    "longitude": 127.004796
  },
  {
    "id": "고잔",
    "name": "고잔역",
    "aliases": [
      "고잔"
    ],
    "lines": [
      "안산선"
    ],
    "latitude": 37.316784,
    "longitude": 126.823144
  },
  {
    "id": "고진",
    "name": "고진역",
    "aliases": [
      "고진"
    ],
    "lines": [
      "에버라인선"
    ],
    "latitude": 37.24484,
    "longitude": 127.214251
  },
  {
    "id": "고촌",
    "name": "고촌역",
    "aliases": [
      "고촌"
    ],
    "lines": [
      "김포골드라인"
    ],
    "latitude": 37.601243,
    "longitude": 126.770345
  },
  {
    "id": "곡산",
    "name": "곡산역",
    "aliases": [
      "곡산"
    ],
    "lines": [
      "경의중앙선"
    ],
    "latitude": 37.645676,
    "longitude": 126.801762
  },
  {
    "id": "곤제",
    "name": "곤제역",
    "aliases": [
      "곤제"
    ],
    "lines": [
      "의정부선"
    ],
    "latitude": 37.750471,
    "longitude": 127.083715
  },
  {
    "id": "곤지암",
    "name": "곤지암역",
    "aliases": [
      "곤지암"
    ],
    "lines": [
      "경강선"
    ],
    "latitude": 37.351315,
    "longitude": 127.34674
  },
  {
    "id": "공덕",
    "name": "공덕역",
    "aliases": [
      "공덕"
    ],
    "lines": [
      "5호선",
      "6호선",
      "경의중앙선",
      "공항철도1호선"
    ],
    "latitude": 37.543278,
    "longitude": 126.951793
  },
  {
    "id": "공릉_서울과학기술대",
    "name": "공릉(서울과학기술대)역",
    "aliases": [
      "공릉(서울과학기술대)"
    ],
    "lines": [
      "7호선"
    ],
    "latitude": 37.625742,
    "longitude": 127.072896
  },
  {
    "id": "공항시장",
    "name": "공항시장역",
    "aliases": [
      "공항시장"
    ],
    "lines": [
      "9호선"
    ],
    "latitude": 37.563726,
    "longitude": 126.810678
  },
  {
    "id": "공항화물청사",
    "name": "공항화물청사역",
    "aliases": [
      "공항화물청사"
    ],
    "lines": [
      "공항철도1호선"
    ],
    "latitude": 37.459041,
    "longitude": 126.477516
  },
  {
    "id": "과천",
    "name": "과천역",
    "aliases": [
      "과천"
    ],
    "lines": [
      "과천선"
    ],
    "latitude": 37.433021,
    "longitude": 126.996568
  },
  {
    "id": "관악산_서울대",
    "name": "관악산(서울대)역",
    "aliases": [
      "관악산(서울대)"
    ],
    "lines": [
      "신림선"
    ],
    "latitude": 37.469102,
    "longitude": 126.945064
  },
  {
    "id": "관악",
    "name": "관악역",
    "aliases": [
      "관악"
    ],
    "lines": [
      "경부선"
    ],
    "latitude": 37.419232,
    "longitude": 126.908706
  },
  {
    "id": "광교_경기대",
    "name": "광교(경기대)역",
    "aliases": [
      "광교(경기대)"
    ],
    "lines": [
      "신분당선(연장)"
    ],
    "latitude": 37.30211,
    "longitude": 127.044483
  },
  {
    "id": "광교중앙_아주대",
    "name": "광교중앙(아주대)역",
    "aliases": [
      "광교중앙(아주대)"
    ],
    "lines": [
      "신분당선(연장)"
    ],
    "latitude": 37.288617,
    "longitude": 127.051478
  },
  {
    "id": "광나루_장신대",
    "name": "광나루(장신대)역",
    "aliases": [
      "광나루(장신대)"
    ],
    "lines": [
      "5호선"
    ],
    "latitude": 37.545303,
    "longitude": 127.10357
  },
  {
    "id": "광명사거리",
    "name": "광명사거리역",
    "aliases": [
      "광명사거리"
    ],
    "lines": [
      "7호선"
    ],
    "latitude": 37.479252,
    "longitude": 126.854876
  },
  {
    "id": "광명",
    "name": "광명역",
    "aliases": [
      "광명"
    ],
    "lines": [
      "경부선"
    ],
    "latitude": 37.416182,
    "longitude": 126.884466
  },
  {
    "id": "광운대",
    "name": "광운대역",
    "aliases": [
      "광운대"
    ],
    "lines": [
      "경원선"
    ],
    "latitude": 37.623632,
    "longitude": 127.061835
  },
  {
    "id": "광화문_세종문화회관",
    "name": "광화문(세종문화회관)역",
    "aliases": [
      "광화문(세종문화회관)"
    ],
    "lines": [
      "5호선"
    ],
    "latitude": 37.571525,
    "longitude": 126.97717
  },
  {
    "id": "광흥창_서강",
    "name": "광흥창(서강)역",
    "aliases": [
      "광흥창(서강)"
    ],
    "lines": [
      "6호선"
    ],
    "latitude": 37.547456,
    "longitude": 126.931993
  },
  {
    "id": "교대_법원_검찰청",
    "name": "교대(법원.검찰청)역",
    "aliases": [
      "교대(법원.검찰청)"
    ],
    "lines": [
      "2호선",
      "3호선"
    ],
    "latitude": 37.493493,
    "longitude": 127.014227
  },
  {
    "id": "구래",
    "name": "구래역",
    "aliases": [
      "구래"
    ],
    "lines": [
      "김포골드라인"
    ],
    "latitude": 37.645384,
    "longitude": 126.628633
  },
  {
    "id": "구로디지털단지",
    "name": "구로디지털단지역",
    "aliases": [
      "구로디지털단지"
    ],
    "lines": [
      "2호선"
    ],
    "latitude": 37.485266,
    "longitude": 126.901401
  },
  {
    "id": "구로",
    "name": "구로역",
    "aliases": [
      "구로"
    ],
    "lines": [
      "경부선"
    ],
    "latitude": 37.503039,
    "longitude": 126.881966
  },
  {
    "id": "구룡",
    "name": "구룡역",
    "aliases": [
      "구룡"
    ],
    "lines": [
      "분당선"
    ],
    "latitude": 37.486839,
    "longitude": 127.058856
  },
  {
    "id": "구리",
    "name": "구리역",
    "aliases": [
      "구리"
    ],
    "lines": [
      "별내선",
      "중앙선"
    ],
    "latitude": 37.603006,
    "longitude": 127.142284
  },
  {
    "id": "구반포",
    "name": "구반포역",
    "aliases": [
      "구반포"
    ],
    "lines": [
      "9호선"
    ],
    "latitude": 37.501364,
    "longitude": 126.987332
  },
  {
    "id": "구산",
    "name": "구산역",
    "aliases": [
      "구산"
    ],
    "lines": [
      "6호선"
    ],
    "latitude": 37.611377,
    "longitude": 126.91727
  },
  {
    "id": "구성",
    "name": "구성역",
    "aliases": [
      "구성"
    ],
    "lines": [
      "분당선",
      "수도권광역급행철도"
    ],
    "latitude": 37.299049,
    "longitude": 127.104777
  },
  {
    "id": "구의_광진구청",
    "name": "구의(광진구청)역",
    "aliases": [
      "구의(광진구청)"
    ],
    "lines": [
      "2호선"
    ],
    "latitude": 37.537077,
    "longitude": 127.085916
  },
  {
    "id": "구일",
    "name": "구일역",
    "aliases": [
      "구일"
    ],
    "lines": [
      "경인선"
    ],
    "latitude": 37.496756,
    "longitude": 126.870793
  },
  {
    "id": "구파발",
    "name": "구파발역",
    "aliases": [
      "구파발"
    ],
    "lines": [
      "3호선"
    ],
    "latitude": 37.636763,
    "longitude": 126.918821
  },
  {
    "id": "국수",
    "name": "국수역",
    "aliases": [
      "국수"
    ],
    "lines": [
      "중앙선"
    ],
    "latitude": 37.516169,
    "longitude": 127.399367
  },
  {
    "id": "국제업무지구",
    "name": "국제업무지구역",
    "aliases": [
      "국제업무지구"
    ],
    "lines": [
      "인천1호선"
    ],
    "latitude": 37.399907,
    "longitude": 126.630347
  },
  {
    "id": "국회의사당",
    "name": "국회의사당역",
    "aliases": [
      "국회의사당"
    ],
    "lines": [
      "9호선"
    ],
    "latitude": 37.528105,
    "longitude": 126.917874
  },
  {
    "id": "군자_능동",
    "name": "군자(능동)역",
    "aliases": [
      "군자(능동)"
    ],
    "lines": [
      "5호선",
      "7호선"
    ],
    "latitude": 37.556992,
    "longitude": 127.079458
  },
  {
    "id": "군포",
    "name": "군포역",
    "aliases": [
      "군포"
    ],
    "lines": [
      "경부선"
    ],
    "latitude": 37.35356,
    "longitude": 126.948462
  },
  {
    "id": "굴봉산",
    "name": "굴봉산역",
    "aliases": [
      "굴봉산"
    ],
    "lines": [
      "경춘선"
    ],
    "latitude": 37.832067,
    "longitude": 127.557695
  },
  {
    "id": "굴포천",
    "name": "굴포천역",
    "aliases": [
      "굴포천"
    ],
    "lines": [
      "7호선",
      "7호선(인천)"
    ],
    "latitude": 37.506903,
    "longitude": 126.73181
  },
  {
    "id": "굽은다리_강동구민회관앞",
    "name": "굽은다리(강동구민회관앞)역",
    "aliases": [
      "굽은다리(강동구민회관앞)"
    ],
    "lines": [
      "5호선"
    ],
    "latitude": 37.545477,
    "longitude": 127.142853
  },
  {
    "id": "귤현",
    "name": "귤현역",
    "aliases": [
      "귤현"
    ],
    "lines": [
      "인천1호선"
    ],
    "latitude": 37.566379,
    "longitude": 126.742654
  },
  {
    "id": "금곡",
    "name": "금곡역",
    "aliases": [
      "금곡"
    ],
    "lines": [
      "경춘선"
    ],
    "latitude": 37.637382,
    "longitude": 127.207853
  },
  {
    "id": "금릉",
    "name": "금릉역",
    "aliases": [
      "금릉"
    ],
    "lines": [
      "경의중앙선"
    ],
    "latitude": 37.751322,
    "longitude": 126.765347
  },
  {
    "id": "금정",
    "name": "금정역",
    "aliases": [
      "금정"
    ],
    "lines": [
      "경부선",
      "과천선"
    ],
    "latitude": 37.372215,
    "longitude": 126.943423
  },
  {
    "id": "금천구청",
    "name": "금천구청역",
    "aliases": [
      "금천구청"
    ],
    "lines": [
      "경부선"
    ],
    "latitude": 37.455626,
    "longitude": 126.89398
  },
  {
    "id": "금촌",
    "name": "금촌역",
    "aliases": [
      "금촌"
    ],
    "lines": [
      "경의중앙선"
    ],
    "latitude": 37.766217,
    "longitude": 126.774644
  },
  {
    "id": "금호",
    "name": "금호역",
    "aliases": [
      "금호"
    ],
    "lines": [
      "3호선"
    ],
    "latitude": 37.548034,
    "longitude": 127.015872
  },
  {
    "id": "기흥",
    "name": "기흥역",
    "aliases": [
      "기흥"
    ],
    "lines": [
      "분당선",
      "에버라인선"
    ],
    "latitude": 37.275255,
    "longitude": 127.116287
  },
  {
    "id": "길동",
    "name": "길동역",
    "aliases": [
      "길동"
    ],
    "lines": [
      "5호선"
    ],
    "latitude": 37.537801,
    "longitude": 127.140004
  },
  {
    "id": "길음",
    "name": "길음역",
    "aliases": [
      "길음"
    ],
    "lines": [
      "4호선"
    ],
    "latitude": 37.603407,
    "longitude": 127.025053
  },
  {
    "id": "김량장",
    "name": "김량장역",
    "aliases": [
      "김량장"
    ],
    "lines": [
      "에버라인선"
    ],
    "latitude": 37.237247,
    "longitude": 127.198781
  },
  {
    "id": "김유정",
    "name": "김유정역",
    "aliases": [
      "김유정"
    ],
    "lines": [
      "경춘선"
    ],
    "latitude": 37.818466,
    "longitude": 127.71434
  },
  {
    "id": "김포공항",
    "name": "김포공항역",
    "aliases": [
      "김포공항"
    ],
    "lines": [
      "5호선",
      "9호선",
      "공항철도1호선",
      "김포골드라인",
      "서해선"
    ],
    "latitude": 37.56204,
    "longitude": 126.802263
  },
  {
    "id": "까치산",
    "name": "까치산역",
    "aliases": [
      "까치산"
    ],
    "lines": [
      "5호선"
    ],
    "latitude": 37.531768,
    "longitude": 126.846683
  },
  {
    "id": "까치울",
    "name": "까치울역",
    "aliases": [
      "까치울"
    ],
    "lines": [
      "7호선",
      "7호선(인천)"
    ],
    "latitude": 37.506169,
    "longitude": 126.810935
  },
  {
    "id": "낙성대",
    "name": "낙성대역",
    "aliases": [
      "낙성대"
    ],
    "lines": [
      "2호선"
    ],
    "latitude": 37.47693,
    "longitude": 126.963693
  },
  {
    "id": "남구로",
    "name": "남구로역",
    "aliases": [
      "남구로"
    ],
    "lines": [
      "7호선"
    ],
    "latitude": 37.486056,
    "longitude": 126.887249
  },
  {
    "id": "남동구청",
    "name": "남동구청역",
    "aliases": [
      "남동구청"
    ],
    "lines": [
      "인천2호선"
    ],
    "latitude": 37.448161,
    "longitude": 126.736939
  },
  {
    "id": "남동인더스파크",
    "name": "남동인더스파크역",
    "aliases": [
      "남동인더스파크"
    ],
    "lines": [
      "수인선"
    ],
    "latitude": 37.407722,
    "longitude": 126.695216
  },
  {
    "id": "남부터미널_예술의전당",
    "name": "남부터미널(예술의전당)역",
    "aliases": [
      "남부터미널(예술의전당)"
    ],
    "lines": [
      "3호선"
    ],
    "latitude": 37.485013,
    "longitude": 127.016189
  },
  {
    "id": "남성",
    "name": "남성역",
    "aliases": [
      "남성"
    ],
    "lines": [
      "7호선"
    ],
    "latitude": 37.484596,
    "longitude": 126.971251
  },
  {
    "id": "남영",
    "name": "남영역",
    "aliases": [
      "남영"
    ],
    "lines": [
      "경부선"
    ],
    "latitude": 37.541021,
    "longitude": 126.9713
  },
  {
    "id": "남위례",
    "name": "남위례역",
    "aliases": [
      "남위례"
    ],
    "lines": [
      "8호선"
    ],
    "latitude": 37.4624,
    "longitude": 127.13977
  },
  {
    "id": "남춘천",
    "name": "남춘천역",
    "aliases": [
      "남춘천"
    ],
    "lines": [
      "경춘선"
    ],
    "latitude": 37.864007,
    "longitude": 127.723792
  },
  {
    "id": "남태령",
    "name": "남태령역",
    "aliases": [
      "남태령"
    ],
    "lines": [
      "4호선"
    ],
    "latitude": 37.463873,
    "longitude": 126.989134
  },
  {
    "id": "남한산성입구_성남법원_검찰청",
    "name": "남한산성입구(성남법원.검찰청)역",
    "aliases": [
      "남한산성입구(성남법원.검찰청)"
    ],
    "lines": [
      "8호선"
    ],
    "latitude": 37.451535,
    "longitude": 127.159816
  },
  {
    "id": "내방",
    "name": "내방역",
    "aliases": [
      "내방"
    ],
    "lines": [
      "7호선"
    ],
    "latitude": 37.487618,
    "longitude": 126.993513
  },
  {
    "id": "노들",
    "name": "노들역",
    "aliases": [
      "노들"
    ],
    "lines": [
      "9호선"
    ],
    "latitude": 37.512887,
    "longitude": 126.953222
  },
  {
    "id": "노량진",
    "name": "노량진역",
    "aliases": [
      "노량진"
    ],
    "lines": [
      "9호선",
      "경부선"
    ],
    "latitude": 37.513841,
    "longitude": 126.941857
  },
  {
    "id": "노원",
    "name": "노원역",
    "aliases": [
      "노원"
    ],
    "lines": [
      "4호선",
      "7호선"
    ],
    "latitude": 37.655553,
    "longitude": 127.061869
  },
  {
    "id": "녹번",
    "name": "녹번역",
    "aliases": [
      "녹번"
    ],
    "lines": [
      "3호선"
    ],
    "latitude": 37.600927,
    "longitude": 126.935756
  },
  {
    "id": "녹사평_용산구청",
    "name": "녹사평(용산구청)역",
    "aliases": [
      "녹사평(용산구청)"
    ],
    "lines": [
      "6호선"
    ],
    "latitude": 37.534675,
    "longitude": 126.986695
  },
  {
    "id": "녹양",
    "name": "녹양역",
    "aliases": [
      "녹양"
    ],
    "lines": [
      "경원선"
    ],
    "latitude": 37.75938,
    "longitude": 127.042292
  },
  {
    "id": "녹천",
    "name": "녹천역",
    "aliases": [
      "녹천"
    ],
    "lines": [
      "경원선"
    ],
    "latitude": 37.644799,
    "longitude": 127.051269
  },
  {
    "id": "논현",
    "name": "논현역",
    "aliases": [
      "논현"
    ],
    "lines": [
      "7호선",
      "신분당선(연장2)"
    ],
    "latitude": 37.511093,
    "longitude": 127.021415
  },
  {
    "id": "능곡",
    "name": "능곡역",
    "aliases": [
      "능곡"
    ],
    "lines": [
      "경의중앙선"
    ],
    "latitude": 37.618808,
    "longitude": 126.820783
  },
  {
    "id": "다산",
    "name": "다산역",
    "aliases": [
      "다산"
    ],
    "lines": [
      "별내선"
    ],
    "latitude": 37.62429,
    "longitude": 127.14973
  },
  {
    "id": "단대오거리",
    "name": "단대오거리역",
    "aliases": [
      "단대오거리"
    ],
    "lines": [
      "8호선"
    ],
    "latitude": 37.44521,
    "longitude": 127.156866
  },
  {
    "id": "달미",
    "name": "달미역",
    "aliases": [
      "달미"
    ],
    "lines": [
      "서해선"
    ],
    "latitude": 37.348847,
    "longitude": 126.809409
  },
  {
    "id": "달월",
    "name": "달월역",
    "aliases": [
      "달월"
    ],
    "lines": [
      "수인선"
    ],
    "latitude": 37.379681,
    "longitude": 126.745177
  },
  {
    "id": "답십리",
    "name": "답십리역",
    "aliases": [
      "답십리"
    ],
    "lines": [
      "5호선"
    ],
    "latitude": 37.566747,
    "longitude": 127.052704
  },
  {
    "id": "당곡",
    "name": "당곡역",
    "aliases": [
      "당곡"
    ],
    "lines": [
      "신림선"
    ],
    "latitude": 37.4903,
    "longitude": 126.927513
  },
  {
    "id": "당산",
    "name": "당산역",
    "aliases": [
      "당산"
    ],
    "lines": [
      "2호선",
      "9호선"
    ],
    "latitude": 37.534176,
    "longitude": 126.902788
  },
  {
    "id": "당정",
    "name": "당정역",
    "aliases": [
      "당정"
    ],
    "lines": [
      "경부선"
    ],
    "latitude": 37.344285,
    "longitude": 126.948345
  },
  {
    "id": "대곡",
    "name": "대곡역",
    "aliases": [
      "대곡"
    ],
    "lines": [
      "수도권광역급행철도",
      "일산선"
    ],
    "latitude": 37.631768,
    "longitude": 126.811077
  },
  {
    "id": "대공원",
    "name": "대공원역",
    "aliases": [
      "대공원"
    ],
    "lines": [
      "과천선"
    ],
    "latitude": 37.435675,
    "longitude": 127.006523
  },
  {
    "id": "대림_구로구청",
    "name": "대림(구로구청)역",
    "aliases": [
      "대림(구로구청)"
    ],
    "lines": [
      "2호선",
      "7호선"
    ],
    "latitude": 37.493128,
    "longitude": 126.896004
  },
  {
    "id": "대모산입구",
    "name": "대모산입구역",
    "aliases": [
      "대모산입구"
    ],
    "lines": [
      "분당선"
    ],
    "latitude": 37.491373,
    "longitude": 127.07272
  },
  {
    "id": "대방",
    "name": "대방역",
    "aliases": [
      "대방"
    ],
    "lines": [
      "경부선",
      "신림선"
    ],
    "latitude": 37.513324,
    "longitude": 126.926054
  },
  {
    "id": "대성리",
    "name": "대성리역",
    "aliases": [
      "대성리"
    ],
    "lines": [
      "경춘선"
    ],
    "latitude": 37.684071,
    "longitude": 127.379319
  },
  {
    "id": "대야미",
    "name": "대야미역",
    "aliases": [
      "대야미"
    ],
    "lines": [
      "안산선"
    ],
    "latitude": 37.328467,
    "longitude": 126.917332
  },
  {
    "id": "대청",
    "name": "대청역",
    "aliases": [
      "대청"
    ],
    "lines": [
      "3호선"
    ],
    "latitude": 37.493514,
    "longitude": 127.079532
  },
  {
    "id": "대치",
    "name": "대치역",
    "aliases": [
      "대치"
    ],
    "lines": [
      "3호선"
    ],
    "latitude": 37.494612,
    "longitude": 127.063642
  },
  {
    "id": "대화",
    "name": "대화역",
    "aliases": [
      "대화"
    ],
    "lines": [
      "일산선"
    ],
    "latitude": 37.676087,
    "longitude": 126.747569
  },
  {
    "id": "대흥_서강대앞",
    "name": "대흥(서강대앞)역",
    "aliases": [
      "대흥(서강대앞)"
    ],
    "lines": [
      "6호선"
    ],
    "latitude": 37.547771,
    "longitude": 126.942069
  },
  {
    "id": "덕계",
    "name": "덕계역",
    "aliases": [
      "덕계"
    ],
    "lines": [
      "경원선"
    ],
    "latitude": 37.818486,
    "longitude": 127.056486
  },
  {
    "id": "덕소",
    "name": "덕소역",
    "aliases": [
      "덕소"
    ],
    "lines": [
      "중앙선"
    ],
    "latitude": 37.586781,
    "longitude": 127.208832
  },
  {
    "id": "덕정",
    "name": "덕정역",
    "aliases": [
      "덕정"
    ],
    "lines": [
      "경원선"
    ],
    "latitude": 37.843188,
    "longitude": 127.061277
  },
  {
    "id": "도곡",
    "name": "도곡역",
    "aliases": [
      "도곡"
    ],
    "lines": [
      "3호선",
      "분당선"
    ],
    "latitude": 37.491073,
    "longitude": 127.055319
  },
  {
    "id": "도농",
    "name": "도농역",
    "aliases": [
      "도농"
    ],
    "lines": [
      "중앙선"
    ],
    "latitude": 37.608806,
    "longitude": 127.161153
  },
  {
    "id": "도림천",
    "name": "도림천역",
    "aliases": [
      "도림천"
    ],
    "lines": [
      "2호선"
    ],
    "latitude": 37.514287,
    "longitude": 126.882768
  },
  {
    "id": "도봉산",
    "name": "도봉산역",
    "aliases": [
      "도봉산"
    ],
    "lines": [
      "7호선",
      "경원선"
    ],
    "latitude": 37.689388,
    "longitude": 127.046279
  },
  {
    "id": "도봉",
    "name": "도봉역",
    "aliases": [
      "도봉"
    ],
    "lines": [
      "경원선"
    ],
    "latitude": 37.679563,
    "longitude": 127.045595
  },
  {
    "id": "도심",
    "name": "도심역",
    "aliases": [
      "도심"
    ],
    "lines": [
      "중앙선"
    ],
    "latitude": 37.579622,
    "longitude": 127.222672
  },
  {
    "id": "도원",
    "name": "도원역",
    "aliases": [
      "도원"
    ],
    "lines": [
      "경인선"
    ],
    "latitude": 37.468446,
    "longitude": 126.642706
  },
  {
    "id": "도화",
    "name": "도화역",
    "aliases": [
      "도화"
    ],
    "lines": [
      "경인선"
    ],
    "latitude": 37.46607,
    "longitude": 126.668672
  },
  {
    "id": "독립문",
    "name": "독립문역",
    "aliases": [
      "독립문"
    ],
    "lines": [
      "3호선"
    ],
    "latitude": 37.574571,
    "longitude": 126.957748
  },
  {
    "id": "독바위",
    "name": "독바위역",
    "aliases": [
      "독바위"
    ],
    "lines": [
      "6호선"
    ],
    "latitude": 37.618456,
    "longitude": 126.933031
  },
  {
    "id": "독산",
    "name": "독산역",
    "aliases": [
      "독산"
    ],
    "lines": [
      "경부선"
    ],
    "latitude": 37.466613,
    "longitude": 126.889249
  },
  {
    "id": "독정",
    "name": "독정역",
    "aliases": [
      "독정"
    ],
    "lines": [
      "인천2호선"
    ],
    "latitude": 37.585212,
    "longitude": 126.675844
  },
  {
    "id": "돌곶이",
    "name": "돌곶이역",
    "aliases": [
      "돌곶이"
    ],
    "lines": [
      "6호선"
    ],
    "latitude": 37.610537,
    "longitude": 127.056431
  },
  {
    "id": "동구릉",
    "name": "동구릉역",
    "aliases": [
      "동구릉"
    ],
    "lines": [
      "별내선"
    ],
    "latitude": 37.61105,
    "longitude": 127.13793
  },
  {
    "id": "동대문",
    "name": "동대문역",
    "aliases": [
      "동대문"
    ],
    "lines": [
      "1호선",
      "4호선"
    ],
    "latitude": 37.571309,
    "longitude": 127.010109
  },
  {
    "id": "동대문역사문화공원",
    "name": "동대문역사문화공원역",
    "aliases": [
      "동대문역사문화공원"
    ],
    "lines": [
      "2호선",
      "4호선",
      "5호선"
    ],
    "latitude": 37.565137,
    "longitude": 127.007431
  },
  {
    "id": "동대입구",
    "name": "동대입구역",
    "aliases": [
      "동대입구"
    ],
    "lines": [
      "3호선"
    ],
    "latitude": 37.559052,
    "longitude": 127.005602
  },
  {
    "id": "동두천",
    "name": "동두천역",
    "aliases": [
      "동두천"
    ],
    "lines": [
      "경원선"
    ],
    "latitude": 37.927878,
    "longitude": 127.05479
  },
  {
    "id": "동두천중앙",
    "name": "동두천중앙역",
    "aliases": [
      "동두천중앙"
    ],
    "lines": [
      "경원선"
    ],
    "latitude": 37.901885,
    "longitude": 127.056482
  },
  {
    "id": "동막",
    "name": "동막역",
    "aliases": [
      "동막"
    ],
    "lines": [
      "인천1호선"
    ],
    "latitude": 37.397878,
    "longitude": 126.674005
  },
  {
    "id": "동묘앞",
    "name": "동묘앞역",
    "aliases": [
      "동묘앞"
    ],
    "lines": [
      "1호선",
      "6호선"
    ],
    "latitude": 37.572738,
    "longitude": 127.016066
  },
  {
    "id": "동백",
    "name": "동백역",
    "aliases": [
      "동백"
    ],
    "lines": [
      "에버라인선"
    ],
    "latitude": 37.269043,
    "longitude": 127.152716
  },
  {
    "id": "동수",
    "name": "동수역",
    "aliases": [
      "동수"
    ],
    "lines": [
      "인천1호선"
    ],
    "latitude": 37.485312,
    "longitude": 126.718247
  },
  {
    "id": "동암",
    "name": "동암역",
    "aliases": [
      "동암"
    ],
    "lines": [
      "경인선"
    ],
    "latitude": 37.471408,
    "longitude": 126.702896
  },
  {
    "id": "동오",
    "name": "동오역",
    "aliases": [
      "동오"
    ],
    "lines": [
      "의정부선"
    ],
    "latitude": 37.745271,
    "longitude": 127.056947
  },
  {
    "id": "동인천",
    "name": "동인천역",
    "aliases": [
      "동인천"
    ],
    "lines": [
      "경인선"
    ],
    "latitude": 37.475276,
    "longitude": 126.632802
  },
  {
    "id": "동작_현충원",
    "name": "동작(현충원)역",
    "aliases": [
      "동작(현충원)"
    ],
    "lines": [
      "4호선",
      "9호선"
    ],
    "latitude": 37.502865,
    "longitude": 126.97925
  },
  {
    "id": "동천",
    "name": "동천역",
    "aliases": [
      "동천"
    ],
    "lines": [
      "신분당선(연장)"
    ],
    "latitude": 37.337928,
    "longitude": 127.102976
  },
  {
    "id": "동춘",
    "name": "동춘역",
    "aliases": [
      "동춘"
    ],
    "lines": [
      "인천1호선"
    ],
    "latitude": 37.404737,
    "longitude": 126.681015
  },
  {
    "id": "동탄",
    "name": "동탄역",
    "aliases": [
      "동탄"
    ],
    "lines": [
      "수도권광역급행철도"
    ],
    "latitude": 37.20034,
    "longitude": 127.09569
  },
  {
    "id": "두정",
    "name": "두정역",
    "aliases": [
      "두정"
    ],
    "lines": [
      "경부선"
    ],
    "latitude": 36.833705,
    "longitude": 127.14896
  },
  {
    "id": "둔전",
    "name": "둔전역",
    "aliases": [
      "둔전"
    ],
    "lines": [
      "에버라인선"
    ],
    "latitude": 37.267051,
    "longitude": 127.21364
  },
  {
    "id": "둔촌동",
    "name": "둔촌동역",
    "aliases": [
      "둔촌동"
    ],
    "lines": [
      "5호선"
    ],
    "latitude": 37.527788,
    "longitude": 127.136248
  },
  {
    "id": "둔촌오륜",
    "name": "둔촌오륜역",
    "aliases": [
      "둔촌오륜"
    ],
    "lines": [
      "9호선(연장)"
    ],
    "latitude": 37.519683,
    "longitude": 127.137989
  },
  {
    "id": "등촌",
    "name": "등촌역",
    "aliases": [
      "등촌"
    ],
    "lines": [
      "9호선"
    ],
    "latitude": 37.550632,
    "longitude": 126.865689
  },
  {
    "id": "디지털미디어시티",
    "name": "디지털미디어시티역",
    "aliases": [
      "디지털미디어시티"
    ],
    "lines": [
      "6호선",
      "경의중앙선",
      "공항철도1호선"
    ],
    "latitude": 37.576847,
    "longitude": 126.900151
  },
  {
    "id": "뚝섬",
    "name": "뚝섬역",
    "aliases": [
      "뚝섬"
    ],
    "lines": [
      "2호선"
    ],
    "latitude": 37.547184,
    "longitude": 127.047367
  },
  {
    "id": "뚝섬유원지",
    "name": "뚝섬유원지역",
    "aliases": [
      "뚝섬유원지"
    ],
    "lines": [
      "7호선"
    ],
    "latitude": 37.53154,
    "longitude": 127.066704
  },
  {
    "id": "마곡나루",
    "name": "마곡나루역",
    "aliases": [
      "마곡나루"
    ],
    "lines": [
      "9호선",
      "공항철도1호선"
    ],
    "latitude": 37.56616,
    "longitude": 126.827344
  },
  {
    "id": "마곡",
    "name": "마곡역",
    "aliases": [
      "마곡"
    ],
    "lines": [
      "5호선"
    ],
    "latitude": 37.560183,
    "longitude": 126.825448
  },
  {
    "id": "마두",
    "name": "마두역",
    "aliases": [
      "마두"
    ],
    "lines": [
      "일산선"
    ],
    "latitude": 37.652206,
    "longitude": 126.77762
  },
  {
    "id": "마들",
    "name": "마들역",
    "aliases": [
      "마들"
    ],
    "lines": [
      "7호선"
    ],
    "latitude": 37.66494,
    "longitude": 127.057675
  },
  {
    "id": "마산",
    "name": "마산역",
    "aliases": [
      "마산"
    ],
    "lines": [
      "김포골드라인"
    ],
    "latitude": 37.640732,
    "longitude": 126.644344
  },
  {
    "id": "마석",
    "name": "마석역",
    "aliases": [
      "마석"
    ],
    "lines": [
      "경춘선"
    ],
    "latitude": 37.652782,
    "longitude": 127.311767
  },
  {
    "id": "마장",
    "name": "마장역",
    "aliases": [
      "마장"
    ],
    "lines": [
      "5호선"
    ],
    "latitude": 37.5661,
    "longitude": 127.042973
  },
  {
    "id": "마전",
    "name": "마전역",
    "aliases": [
      "마전"
    ],
    "lines": [
      "인천2호선"
    ],
    "latitude": 37.597566,
    "longitude": 126.666998
  },
  {
    "id": "마천",
    "name": "마천역",
    "aliases": [
      "마천"
    ],
    "lines": [
      "5호선"
    ],
    "latitude": 37.49499,
    "longitude": 127.152781
  },
  {
    "id": "마포구청",
    "name": "마포구청역",
    "aliases": [
      "마포구청"
    ],
    "lines": [
      "6호선"
    ],
    "latitude": 37.563515,
    "longitude": 126.903343
  },
  {
    "id": "마포",
    "name": "마포역",
    "aliases": [
      "마포"
    ],
    "lines": [
      "5호선"
    ],
    "latitude": 37.539574,
    "longitude": 126.945932
  },
  {
    "id": "만수",
    "name": "만수역",
    "aliases": [
      "만수"
    ],
    "lines": [
      "인천2호선"
    ],
    "latitude": 37.454911,
    "longitude": 126.732094
  },
  {
    "id": "망우",
    "name": "망우역",
    "aliases": [
      "망우"
    ],
    "lines": [
      "중앙선"
    ],
    "latitude": 37.59955,
    "longitude": 127.091909
  },
  {
    "id": "망원",
    "name": "망원역",
    "aliases": [
      "망원"
    ],
    "lines": [
      "6호선"
    ],
    "latitude": 37.556094,
    "longitude": 126.910052
  },
  {
    "id": "망월사",
    "name": "망월사역",
    "aliases": [
      "망월사"
    ],
    "lines": [
      "경원선"
    ],
    "latitude": 37.709914,
    "longitude": 127.047455
  },
  {
    "id": "망포",
    "name": "망포역",
    "aliases": [
      "망포"
    ],
    "lines": [
      "분당선"
    ],
    "latitude": 37.245795,
    "longitude": 127.057353
  },
  {
    "id": "매교",
    "name": "매교역",
    "aliases": [
      "매교"
    ],
    "lines": [
      "분당선"
    ],
    "latitude": 37.265481,
    "longitude": 127.015678
  },
  {
    "id": "매봉",
    "name": "매봉역",
    "aliases": [
      "매봉"
    ],
    "lines": [
      "3호선"
    ],
    "latitude": 37.486947,
    "longitude": 127.046769
  },
  {
    "id": "매탄권선",
    "name": "매탄권선역",
    "aliases": [
      "매탄권선"
    ],
    "lines": [
      "분당선"
    ],
    "latitude": 37.252759,
    "longitude": 127.040566
  },
  {
    "id": "먹골",
    "name": "먹골역",
    "aliases": [
      "먹골"
    ],
    "lines": [
      "7호선"
    ],
    "latitude": 37.610637,
    "longitude": 127.077725
  },
  {
    "id": "면목",
    "name": "면목역",
    "aliases": [
      "면목"
    ],
    "lines": [
      "7호선"
    ],
    "latitude": 37.588579,
    "longitude": 127.087503
  },
  {
    "id": "명동",
    "name": "명동역",
    "aliases": [
      "명동"
    ],
    "lines": [
      "4호선"
    ],
    "latitude": 37.560989,
    "longitude": 126.986325
  },
  {
    "id": "명일",
    "name": "명일역",
    "aliases": [
      "명일"
    ],
    "lines": [
      "5호선"
    ],
    "latitude": 37.55137,
    "longitude": 127.143999
  },
  {
    "id": "명지대",
    "name": "명지대역",
    "aliases": [
      "명지대"
    ],
    "lines": [
      "에버라인선"
    ],
    "latitude": 37.237964,
    "longitude": 127.190294
  },
  {
    "id": "명학",
    "name": "명학역",
    "aliases": [
      "명학"
    ],
    "lines": [
      "경부선"
    ],
    "latitude": 37.384653,
    "longitude": 126.935433
  },
  {
    "id": "모란",
    "name": "모란역",
    "aliases": [
      "모란"
    ],
    "lines": [
      "8호선",
      "분당선"
    ],
    "latitude": 37.432938,
    "longitude": 127.12947
  },
  {
    "id": "모래내시장",
    "name": "모래내시장역",
    "aliases": [
      "모래내시장"
    ],
    "lines": [
      "인천2호선"
    ],
    "latitude": 37.45583,
    "longitude": 126.719298
  },
  {
    "id": "목동",
    "name": "목동역",
    "aliases": [
      "목동"
    ],
    "lines": [
      "5호선"
    ],
    "latitude": 37.526065,
    "longitude": 126.864931
  },
  {
    "id": "몽촌토성_평화의문",
    "name": "몽촌토성(평화의문)역",
    "aliases": [
      "몽촌토성(평화의문)"
    ],
    "lines": [
      "8호선"
    ],
    "latitude": 37.517409,
    "longitude": 127.112359
  },
  {
    "id": "무악재",
    "name": "무악재역",
    "aliases": [
      "무악재"
    ],
    "lines": [
      "3호선"
    ],
    "latitude": 37.582299,
    "longitude": 126.950291
  },
  {
    "id": "문래",
    "name": "문래역",
    "aliases": [
      "문래"
    ],
    "lines": [
      "2호선"
    ],
    "latitude": 37.517933,
    "longitude": 126.89476
  },
  {
    "id": "문산",
    "name": "문산역",
    "aliases": [
      "문산"
    ],
    "lines": [
      "경의중앙선"
    ],
    "latitude": 37.854619,
    "longitude": 126.788047
  },
  {
    "id": "문정",
    "name": "문정역",
    "aliases": [
      "문정"
    ],
    "lines": [
      "8호선"
    ],
    "latitude": 37.485855,
    "longitude": 127.1225
  },
  {
    "id": "문학경기장",
    "name": "문학경기장역",
    "aliases": [
      "문학경기장"
    ],
    "lines": [
      "인천1호선"
    ],
    "latitude": 37.434935,
    "longitude": 126.698579
  },
  {
    "id": "미금",
    "name": "미금역",
    "aliases": [
      "미금"
    ],
    "lines": [
      "분당선",
      "신분당선(연장)"
    ],
    "latitude": 37.350029,
    "longitude": 127.108914
  },
  {
    "id": "미사",
    "name": "미사역",
    "aliases": [
      "미사"
    ],
    "lines": [
      "5호선"
    ],
    "latitude": 37.560927,
    "longitude": 127.193877
  },
  {
    "id": "미아_서울사이버대학",
    "name": "미아(서울사이버대학)역",
    "aliases": [
      "미아(서울사이버대학)"
    ],
    "lines": [
      "4호선"
    ],
    "latitude": 37.62667,
    "longitude": 127.025983
  },
  {
    "id": "미아사거리",
    "name": "미아사거리역",
    "aliases": [
      "미아사거리"
    ],
    "lines": [
      "4호선"
    ],
    "latitude": 37.613292,
    "longitude": 127.030053
  },
  {
    "id": "박촌",
    "name": "박촌역",
    "aliases": [
      "박촌"
    ],
    "lines": [
      "인천1호선"
    ],
    "latitude": 37.553703,
    "longitude": 126.745077
  },
  {
    "id": "반월",
    "name": "반월역",
    "aliases": [
      "반월"
    ],
    "lines": [
      "안산선"
    ],
    "latitude": 37.312212,
    "longitude": 126.903524
  },
  {
    "id": "반포",
    "name": "반포역",
    "aliases": [
      "반포"
    ],
    "lines": [
      "7호선"
    ],
    "latitude": 37.508178,
    "longitude": 127.011727
  },
  {
    "id": "발곡",
    "name": "발곡역",
    "aliases": [
      "발곡"
    ],
    "lines": [
      "의정부선"
    ],
    "latitude": 37.727048,
    "longitude": 127.052803
  },
  {
    "id": "발산",
    "name": "발산역",
    "aliases": [
      "발산"
    ],
    "lines": [
      "5호선"
    ],
    "latitude": 37.558598,
    "longitude": 126.837668
  },
  {
    "id": "방배",
    "name": "방배역",
    "aliases": [
      "방배"
    ],
    "lines": [
      "2호선"
    ],
    "latitude": 37.481426,
    "longitude": 126.997596
  },
  {
    "id": "방이",
    "name": "방이역",
    "aliases": [
      "방이"
    ],
    "lines": [
      "5호선"
    ],
    "latitude": 37.508857,
    "longitude": 127.126133
  },
  {
    "id": "방학",
    "name": "방학역",
    "aliases": [
      "방학"
    ],
    "lines": [
      "경원선"
    ],
    "latitude": 37.667503,
    "longitude": 127.044273
  },
  {
    "id": "방화",
    "name": "방화역",
    "aliases": [
      "방화"
    ],
    "lines": [
      "5호선"
    ],
    "latitude": 37.577446,
    "longitude": 126.812741
  },
  {
    "id": "배방",
    "name": "배방역",
    "aliases": [
      "배방"
    ],
    "lines": [
      "장항선"
    ],
    "latitude": 36.777629,
    "longitude": 127.052991
  },
  {
    "id": "백마",
    "name": "백마역",
    "aliases": [
      "백마"
    ],
    "lines": [
      "경의중앙선"
    ],
    "latitude": 37.658239,
    "longitude": 126.794461
  },
  {
    "id": "백석",
    "name": "백석역",
    "aliases": [
      "백석"
    ],
    "lines": [
      "일산선"
    ],
    "latitude": 37.643114,
    "longitude": 126.78787
  },
  {
    "id": "백양리",
    "name": "백양리역",
    "aliases": [
      "백양리"
    ],
    "lines": [
      "경춘선"
    ],
    "latitude": 37.830779,
    "longitude": 127.58933
  },
  {
    "id": "백운",
    "name": "백운역",
    "aliases": [
      "백운"
    ],
    "lines": [
      "경인선"
    ],
    "latitude": 37.483664,
    "longitude": 126.707704
  },
  {
    "id": "버티고개",
    "name": "버티고개역",
    "aliases": [
      "버티고개"
    ],
    "lines": [
      "6호선"
    ],
    "latitude": 37.548013,
    "longitude": 127.007055
  },
  {
    "id": "범계",
    "name": "범계역",
    "aliases": [
      "범계"
    ],
    "lines": [
      "과천선"
    ],
    "latitude": 37.389793,
    "longitude": 126.950806
  },
  {
    "id": "범골",
    "name": "범골역",
    "aliases": [
      "범골"
    ],
    "lines": [
      "의정부선"
    ],
    "latitude": 37.728755,
    "longitude": 127.04353
  },
  {
    "id": "별내별가람",
    "name": "별내별가람역",
    "aliases": [
      "별내별가람"
    ],
    "lines": [
      "진접선"
    ],
    "latitude": 37.66778,
    "longitude": 127.11581
  },
  {
    "id": "별내",
    "name": "별내역",
    "aliases": [
      "별내"
    ],
    "lines": [
      "경춘선",
      "별내선"
    ],
    "latitude": 37.64217,
    "longitude": 127.12722
  },
  {
    "id": "병점",
    "name": "병점역",
    "aliases": [
      "병점"
    ],
    "lines": [
      "경부선"
    ],
    "latitude": 37.207503,
    "longitude": 127.032731
  },
  {
    "id": "보라매공원",
    "name": "보라매공원역",
    "aliases": [
      "보라매공원"
    ],
    "lines": [
      "신림선"
    ],
    "latitude": 37.495569,
    "longitude": 126.918083
  },
  {
    "id": "보라매병원",
    "name": "보라매병원역",
    "aliases": [
      "보라매병원"
    ],
    "lines": [
      "신림선"
    ],
    "latitude": 37.49296,
    "longitude": 126.923496
  },
  {
    "id": "보라매",
    "name": "보라매역",
    "aliases": [
      "보라매"
    ],
    "lines": [
      "7호선",
      "신림선"
    ],
    "latitude": 37.500073,
    "longitude": 126.920432
  },
  {
    "id": "보문",
    "name": "보문역",
    "aliases": [
      "보문"
    ],
    "lines": [
      "6호선",
      "우이신설선"
    ],
    "latitude": 37.58528,
    "longitude": 127.019366
  },
  {
    "id": "보산",
    "name": "보산역",
    "aliases": [
      "보산"
    ],
    "lines": [
      "경원선"
    ],
    "latitude": 37.913702,
    "longitude": 127.057277
  },
  {
    "id": "보정",
    "name": "보정역",
    "aliases": [
      "보정"
    ],
    "lines": [
      "분당선"
    ],
    "latitude": 37.312752,
    "longitude": 127.108196
  },
  {
    "id": "보평",
    "name": "보평역",
    "aliases": [
      "보평"
    ],
    "lines": [
      "에버라인선"
    ],
    "latitude": 37.258965,
    "longitude": 127.218457
  },
  {
    "id": "복정",
    "name": "복정역",
    "aliases": [
      "복정"
    ],
    "lines": [
      "8호선"
    ],
    "latitude": 37.471052,
    "longitude": 127.126732
  },
  {
    "id": "봉명",
    "name": "봉명역",
    "aliases": [
      "봉명"
    ],
    "lines": [
      "장항선"
    ],
    "latitude": 36.801215,
    "longitude": 127.135763
  },
  {
    "id": "봉은사",
    "name": "봉은사역",
    "aliases": [
      "봉은사"
    ],
    "lines": [
      "9호선(연장)"
    ],
    "latitude": 37.514219,
    "longitude": 127.060245
  },
  {
    "id": "봉천",
    "name": "봉천역",
    "aliases": [
      "봉천"
    ],
    "lines": [
      "2호선"
    ],
    "latitude": 37.482362,
    "longitude": 126.941892
  },
  {
    "id": "봉화산_서울의료원",
    "name": "봉화산(서울의료원)역",
    "aliases": [
      "봉화산(서울의료원)"
    ],
    "lines": [
      "6호선"
    ],
    "latitude": 37.617283,
    "longitude": 127.091401
  },
  {
    "id": "부개",
    "name": "부개역",
    "aliases": [
      "부개"
    ],
    "lines": [
      "경인선"
    ],
    "latitude": 37.488418,
    "longitude": 126.74109
  },
  {
    "id": "부발",
    "name": "부발역",
    "aliases": [
      "부발"
    ],
    "lines": [
      "경강선"
    ],
    "latitude": 37.260192,
    "longitude": 127.490277
  },
  {
    "id": "부천시청",
    "name": "부천시청역",
    "aliases": [
      "부천시청"
    ],
    "lines": [
      "7호선",
      "7호선(인천)"
    ],
    "latitude": 37.504536,
    "longitude": 126.763589
  },
  {
    "id": "부천",
    "name": "부천역",
    "aliases": [
      "부천"
    ],
    "lines": [
      "경인선"
    ],
    "latitude": 37.48405,
    "longitude": 126.782686
  },
  {
    "id": "부천종합운동장",
    "name": "부천종합운동장역",
    "aliases": [
      "부천종합운동장"
    ],
    "lines": [
      "7호선",
      "7호선(인천)",
      "서해선"
    ],
    "latitude": 37.505286,
    "longitude": 126.797079
  },
  {
    "id": "부평구청",
    "name": "부평구청역",
    "aliases": [
      "부평구청"
    ],
    "lines": [
      "7호선",
      "7호선(인천)",
      "인천1호선"
    ],
    "latitude": 37.508094,
    "longitude": 126.720975
  },
  {
    "id": "부평삼거리",
    "name": "부평삼거리역",
    "aliases": [
      "부평삼거리"
    ],
    "lines": [
      "인천1호선"
    ],
    "latitude": 37.477679,
    "longitude": 126.710208
  },
  {
    "id": "부평시장",
    "name": "부평시장역",
    "aliases": [
      "부평시장"
    ],
    "lines": [
      "인천1호선"
    ],
    "latitude": 37.498383,
    "longitude": 126.722244
  },
  {
    "id": "부평",
    "name": "부평역",
    "aliases": [
      "부평"
    ],
    "lines": [
      "경인선",
      "인천1호선"
    ],
    "latitude": 37.48999,
    "longitude": 126.72398
  },
  {
    "id": "북한산보국문",
    "name": "북한산보국문역",
    "aliases": [
      "북한산보국문"
    ],
    "lines": [
      "우이신설선"
    ],
    "latitude": 37.612072,
    "longitude": 127.008251
  },
  {
    "id": "북한산우이",
    "name": "북한산우이역",
    "aliases": [
      "북한산우이"
    ],
    "lines": [
      "우이신설선"
    ],
    "latitude": 37.662909,
    "longitude": 127.012706
  },
  {
    "id": "불광",
    "name": "불광역",
    "aliases": [
      "불광"
    ],
    "lines": [
      "3호선",
      "6호선"
    ],
    "latitude": 37.610713,
    "longitude": 126.929605
  },
  {
    "id": "불암산",
    "name": "불암산역",
    "aliases": [
      "불암산"
    ],
    "lines": [
      "4호선"
    ],
    "latitude": 37.670272,
    "longitude": 127.079066
  },
  {
    "id": "사가정",
    "name": "사가정역",
    "aliases": [
      "사가정"
    ],
    "lines": [
      "7호선"
    ],
    "latitude": 37.580894,
    "longitude": 127.088478
  },
  {
    "id": "사당",
    "name": "사당역",
    "aliases": [
      "사당"
    ],
    "lines": [
      "2호선",
      "4호선"
    ],
    "latitude": 37.476746,
    "longitude": 126.981597
  },
  {
    "id": "사릉",
    "name": "사릉역",
    "aliases": [
      "사릉"
    ],
    "lines": [
      "경춘선"
    ],
    "latitude": 37.65108,
    "longitude": 127.176933
  },
  {
    "id": "사리",
    "name": "사리역",
    "aliases": [
      "사리"
    ],
    "lines": [
      "수인선"
    ],
    "latitude": 37.28998,
    "longitude": 126.85685
  },
  {
    "id": "사우_김포시청",
    "name": "사우(김포시청)역",
    "aliases": [
      "사우(김포시청)"
    ],
    "lines": [
      "김포골드라인"
    ],
    "latitude": 37.620249,
    "longitude": 126.719731
  },
  {
    "id": "사평",
    "name": "사평역",
    "aliases": [
      "사평"
    ],
    "lines": [
      "9호선"
    ],
    "latitude": 37.504206,
    "longitude": 127.015259
  },
  {
    "id": "산곡",
    "name": "산곡역",
    "aliases": [
      "산곡"
    ],
    "lines": [
      "7호선"
    ],
    "latitude": 37.5086,
    "longitude": 126.703528
  },
  {
    "id": "산본",
    "name": "산본역",
    "aliases": [
      "산본"
    ],
    "lines": [
      "안산선"
    ],
    "latitude": 37.358101,
    "longitude": 126.933274
  },
  {
    "id": "산성",
    "name": "산성역",
    "aliases": [
      "산성"
    ],
    "lines": [
      "8호선"
    ],
    "latitude": 37.457122,
    "longitude": 127.149908
  },
  {
    "id": "삼가",
    "name": "삼가역",
    "aliases": [
      "삼가"
    ],
    "lines": [
      "에버라인선"
    ],
    "latitude": 37.242115,
    "longitude": 127.168075
  },
  {
    "id": "삼각지",
    "name": "삼각지역",
    "aliases": [
      "삼각지"
    ],
    "lines": [
      "4호선",
      "6호선"
    ],
    "latitude": 37.534804,
    "longitude": 126.973316
  },
  {
    "id": "삼동",
    "name": "삼동역",
    "aliases": [
      "삼동"
    ],
    "lines": [
      "경강선"
    ],
    "latitude": 37.409522,
    "longitude": 127.20336
  },
  {
    "id": "삼산체육관",
    "name": "삼산체육관역",
    "aliases": [
      "삼산체육관"
    ],
    "lines": [
      "7호선",
      "7호선(인천)"
    ],
    "latitude": 37.506826,
    "longitude": 126.741972
  },
  {
    "id": "삼성_무역센터",
    "name": "삼성(무역센터)역",
    "aliases": [
      "삼성(무역센터)"
    ],
    "lines": [
      "2호선"
    ],
    "latitude": 37.508844,
    "longitude": 127.06316
  },
  {
    "id": "삼성",
    "name": "삼성역",
    "aliases": [
      "삼성"
    ],
    "lines": [
      "수도권광역급행철도"
    ],
    "latitude": 37.50887,
    "longitude": 127.06324
  },
  {
    "id": "삼성중앙",
    "name": "삼성중앙역",
    "aliases": [
      "삼성중앙"
    ],
    "lines": [
      "9호선(연장)"
    ],
    "latitude": 37.513011,
    "longitude": 127.053282
  },
  {
    "id": "삼송",
    "name": "삼송역",
    "aliases": [
      "삼송"
    ],
    "lines": [
      "일산선"
    ],
    "latitude": 37.653083,
    "longitude": 126.895558
  },
  {
    "id": "삼양사거리",
    "name": "삼양사거리역",
    "aliases": [
      "삼양사거리"
    ],
    "lines": [
      "우이신설선"
    ],
    "latitude": 37.621337,
    "longitude": 127.020473
  },
  {
    "id": "삼양",
    "name": "삼양역",
    "aliases": [
      "삼양"
    ],
    "lines": [
      "우이신설선"
    ],
    "latitude": 37.626914,
    "longitude": 127.018106
  },
  {
    "id": "삼전",
    "name": "삼전역",
    "aliases": [
      "삼전"
    ],
    "lines": [
      "9호선(연장)"
    ],
    "latitude": 37.504738,
    "longitude": 127.088025
  },
  {
    "id": "상갈",
    "name": "상갈역",
    "aliases": [
      "상갈"
    ],
    "lines": [
      "분당선"
    ],
    "latitude": 37.26181,
    "longitude": 127.108847
  },
  {
    "id": "상계",
    "name": "상계역",
    "aliases": [
      "상계"
    ],
    "lines": [
      "4호선"
    ],
    "latitude": 37.660878,
    "longitude": 127.073572
  },
  {
    "id": "상도",
    "name": "상도역",
    "aliases": [
      "상도"
    ],
    "lines": [
      "7호선"
    ],
    "latitude": 37.502834,
    "longitude": 126.94791
  },
  {
    "id": "상동",
    "name": "상동역",
    "aliases": [
      "상동"
    ],
    "lines": [
      "7호선",
      "7호선(인천)"
    ],
    "latitude": 37.505797,
    "longitude": 126.753123
  },
  {
    "id": "상록수",
    "name": "상록수역",
    "aliases": [
      "상록수"
    ],
    "lines": [
      "안산선"
    ],
    "latitude": 37.302795,
    "longitude": 126.866489
  },
  {
    "id": "상봉_시외버스터미널",
    "name": "상봉(시외버스터미널)역",
    "aliases": [
      "상봉(시외버스터미널)"
    ],
    "lines": [
      "7호선",
      "중앙선"
    ],
    "latitude": 37.596127,
    "longitude": 127.085378
  },
  {
    "id": "상수",
    "name": "상수역",
    "aliases": [
      "상수"
    ],
    "lines": [
      "6호선"
    ],
    "latitude": 37.547716,
    "longitude": 126.922852
  },
  {
    "id": "상왕십리",
    "name": "상왕십리역",
    "aliases": [
      "상왕십리"
    ],
    "lines": [
      "2호선"
    ],
    "latitude": 37.564354,
    "longitude": 127.029354
  },
  {
    "id": "상월곡_한국과학기술연구원",
    "name": "상월곡(한국과학기술연구원)역",
    "aliases": [
      "상월곡(한국과학기술연구원)"
    ],
    "lines": [
      "6호선"
    ],
    "latitude": 37.606377,
    "longitude": 127.048491
  },
  {
    "id": "상일동",
    "name": "상일동역",
    "aliases": [
      "상일동"
    ],
    "lines": [
      "5호선"
    ],
    "latitude": 37.556712,
    "longitude": 127.166417
  },
  {
    "id": "상천",
    "name": "상천역",
    "aliases": [
      "상천"
    ],
    "lines": [
      "경춘선"
    ],
    "latitude": 37.770246,
    "longitude": 127.454821
  },
  {
    "id": "상현",
    "name": "상현역",
    "aliases": [
      "상현"
    ],
    "lines": [
      "신분당선(연장)"
    ],
    "latitude": 37.297664,
    "longitude": 127.069342
  },
  {
    "id": "새말",
    "name": "새말역",
    "aliases": [
      "새말"
    ],
    "lines": [
      "의정부선"
    ],
    "latitude": 37.748885,
    "longitude": 127.06362
  },
  {
    "id": "새절_신사",
    "name": "새절(신사)역",
    "aliases": [
      "새절(신사)"
    ],
    "lines": [
      "6호선"
    ],
    "latitude": 37.591148,
    "longitude": 126.913629
  },
  {
    "id": "샛강",
    "name": "샛강역",
    "aliases": [
      "샛강"
    ],
    "lines": [
      "9호선",
      "신림선"
    ],
    "latitude": 37.517185,
    "longitude": 126.928911
  },
  {
    "id": "서강대",
    "name": "서강대역",
    "aliases": [
      "서강대"
    ],
    "lines": [
      "경의중앙선"
    ],
    "latitude": 37.551881,
    "longitude": 126.935711
  },
  {
    "id": "서구청",
    "name": "서구청역",
    "aliases": [
      "서구청"
    ],
    "lines": [
      "인천2호선"
    ],
    "latitude": 37.543742,
    "longitude": 126.676787
  },
  {
    "id": "서대문",
    "name": "서대문역",
    "aliases": [
      "서대문"
    ],
    "lines": [
      "5호선"
    ],
    "latitude": 37.565773,
    "longitude": 126.966641
  },
  {
    "id": "서동탄",
    "name": "서동탄역",
    "aliases": [
      "서동탄"
    ],
    "lines": [
      "경부선"
    ],
    "latitude": 37.195504,
    "longitude": 127.051672
  },
  {
    "id": "서부여성회관",
    "name": "서부여성회관역",
    "aliases": [
      "서부여성회관"
    ],
    "lines": [
      "인천2호선"
    ],
    "latitude": 37.500168,
    "longitude": 126.675795
  },
  {
    "id": "서빙고",
    "name": "서빙고역",
    "aliases": [
      "서빙고"
    ],
    "lines": [
      "경원선"
    ],
    "latitude": 37.519594,
    "longitude": 126.988537
  },
  {
    "id": "서울대벤처타운",
    "name": "서울대벤처타운역",
    "aliases": [
      "서울대벤처타운"
    ],
    "lines": [
      "신림선"
    ],
    "latitude": 37.472002,
    "longitude": 126.933935
  },
  {
    "id": "서울대입구_관악구청",
    "name": "서울대입구(관악구청)역",
    "aliases": [
      "서울대입구(관악구청)"
    ],
    "lines": [
      "2호선"
    ],
    "latitude": 37.481247,
    "longitude": 126.952739
  },
  {
    "id": "서울숲",
    "name": "서울숲역",
    "aliases": [
      "서울숲"
    ],
    "lines": [
      "분당선"
    ],
    "latitude": 37.543617,
    "longitude": 127.044707
  },
  {
    "id": "서울",
    "name": "서울역",
    "aliases": [
      "서울"
    ],
    "lines": [
      "1호선",
      "4호선",
      "경부선",
      "경의중앙선",
      "공항철도1호선",
      "수도권광역급행철도"
    ],
    "latitude": 37.554924,
    "longitude": 126.971597
  },
  {
    "id": "서울지방병무청",
    "name": "서울지방병무청역",
    "aliases": [
      "서울지방병무청"
    ],
    "lines": [
      "신림선"
    ],
    "latitude": 37.506046,
    "longitude": 126.922708
  },
  {
    "id": "서원",
    "name": "서원역",
    "aliases": [
      "서원"
    ],
    "lines": [
      "신림선"
    ],
    "latitude": 37.478234,
    "longitude": 126.933037
  },
  {
    "id": "서정리",
    "name": "서정리역",
    "aliases": [
      "서정리"
    ],
    "lines": [
      "경부선"
    ],
    "latitude": 37.056496,
    "longitude": 127.052819
  },
  {
    "id": "서초",
    "name": "서초역",
    "aliases": [
      "서초"
    ],
    "lines": [
      "2호선"
    ],
    "latitude": 37.491897,
    "longitude": 127.007917
  },
  {
    "id": "서현",
    "name": "서현역",
    "aliases": [
      "서현"
    ],
    "lines": [
      "분당선"
    ],
    "latitude": 37.385126,
    "longitude": 127.123592
  },
  {
    "id": "석계",
    "name": "석계역",
    "aliases": [
      "석계"
    ],
    "lines": [
      "6호선",
      "경원선"
    ],
    "latitude": 37.614702,
    "longitude": 127.065765
  },
  {
    "id": "석남_거북시장",
    "name": "석남(거북시장)역",
    "aliases": [
      "석남(거북시장)"
    ],
    "lines": [
      "7호선",
      "인천2호선"
    ],
    "latitude": 37.506211,
    "longitude": 126.676242
  },
  {
    "id": "석바위시장",
    "name": "석바위시장역",
    "aliases": [
      "석바위시장"
    ],
    "lines": [
      "인천2호선"
    ],
    "latitude": 37.457611,
    "longitude": 126.692575
  },
  {
    "id": "석수",
    "name": "석수역",
    "aliases": [
      "석수"
    ],
    "lines": [
      "경부선"
    ],
    "latitude": 37.435047,
    "longitude": 126.902295
  },
  {
    "id": "석천사거리",
    "name": "석천사거리역",
    "aliases": [
      "석천사거리"
    ],
    "lines": [
      "인천2호선"
    ],
    "latitude": 37.456805,
    "longitude": 126.709986
  },
  {
    "id": "석촌고분",
    "name": "석촌고분역",
    "aliases": [
      "석촌고분"
    ],
    "lines": [
      "9호선(연장)"
    ],
    "latitude": 37.502558,
    "longitude": 127.097033
  },
  {
    "id": "석촌",
    "name": "석촌역",
    "aliases": [
      "석촌"
    ],
    "lines": [
      "8호선",
      "9호선(연장)"
    ],
    "latitude": 37.505383,
    "longitude": 127.106936
  },
  {
    "id": "선릉",
    "name": "선릉역",
    "aliases": [
      "선릉"
    ],
    "lines": [
      "2호선",
      "분당선"
    ],
    "latitude": 37.504571,
    "longitude": 127.048505
  },
  {
    "id": "선바위",
    "name": "선바위역",
    "aliases": [
      "선바위"
    ],
    "lines": [
      "과천선"
    ],
    "latitude": 37.451673,
    "longitude": 127.002303
  },
  {
    "id": "선부",
    "name": "선부역",
    "aliases": [
      "선부"
    ],
    "lines": [
      "서해선"
    ],
    "latitude": 37.334353,
    "longitude": 126.809904
  },
  {
    "id": "선유도",
    "name": "선유도역",
    "aliases": [
      "선유도"
    ],
    "lines": [
      "9호선"
    ],
    "latitude": 37.53802,
    "longitude": 126.893525
  },
  {
    "id": "선정릉",
    "name": "선정릉역",
    "aliases": [
      "선정릉"
    ],
    "lines": [
      "9호선(연장)",
      "분당선"
    ],
    "latitude": 37.510516,
    "longitude": 127.043838
  },
  {
    "id": "선학",
    "name": "선학역",
    "aliases": [
      "선학"
    ],
    "lines": [
      "인천1호선"
    ],
    "latitude": 37.426684,
    "longitude": 126.698863
  },
  {
    "id": "성균관대",
    "name": "성균관대역",
    "aliases": [
      "성균관대"
    ],
    "lines": [
      "경부선"
    ],
    "latitude": 37.300349,
    "longitude": 126.97075
  },
  {
    "id": "성남",
    "name": "성남역",
    "aliases": [
      "성남"
    ],
    "lines": [
      "경강선",
      "수도권광역급행철도"
    ],
    "latitude": 37.394675,
    "longitude": 127.120015
  },
  {
    "id": "성복",
    "name": "성복역",
    "aliases": [
      "성복"
    ],
    "lines": [
      "신분당선(연장)"
    ],
    "latitude": 37.313335,
    "longitude": 127.0801
  },
  {
    "id": "성수",
    "name": "성수역",
    "aliases": [
      "성수"
    ],
    "lines": [
      "2호선"
    ],
    "latitude": 37.544581,
    "longitude": 127.055961
  },
  {
    "id": "성신여대입구_돈암",
    "name": "성신여대입구(돈암)역",
    "aliases": [
      "성신여대입구(돈암)"
    ],
    "lines": [
      "4호선",
      "우이신설선"
    ],
    "latitude": 37.59254,
    "longitude": 127.016479
  },
  {
    "id": "성환",
    "name": "성환역",
    "aliases": [
      "성환"
    ],
    "lines": [
      "경부선"
    ],
    "latitude": 36.916076,
    "longitude": 127.126964
  },
  {
    "id": "세류",
    "name": "세류역",
    "aliases": [
      "세류"
    ],
    "lines": [
      "경부선"
    ],
    "latitude": 37.245025,
    "longitude": 127.013222
  },
  {
    "id": "세마",
    "name": "세마역",
    "aliases": [
      "세마"
    ],
    "lines": [
      "경부선"
    ],
    "latitude": 37.187533,
    "longitude": 127.04318
  },
  {
    "id": "세종대왕릉",
    "name": "세종대왕릉역",
    "aliases": [
      "세종대왕릉"
    ],
    "lines": [
      "경강선"
    ],
    "latitude": 37.295309,
    "longitude": 127.570938
  },
  {
    "id": "센트럴파크",
    "name": "센트럴파크역",
    "aliases": [
      "센트럴파크"
    ],
    "lines": [
      "인천1호선"
    ],
    "latitude": 37.393054,
    "longitude": 126.634729
  },
  {
    "id": "소래포구",
    "name": "소래포구역",
    "aliases": [
      "소래포구"
    ],
    "lines": [
      "수인선"
    ],
    "latitude": 37.40095,
    "longitude": 126.733522
  },
  {
    "id": "소사",
    "name": "소사역",
    "aliases": [
      "소사"
    ],
    "lines": [
      "경인선",
      "서해선"
    ],
    "latitude": 37.483016,
    "longitude": 126.795231
  },
  {
    "id": "소새울",
    "name": "소새울역",
    "aliases": [
      "소새울"
    ],
    "lines": [
      "서해선"
    ],
    "latitude": 37.468467,
    "longitude": 126.797252
  },
  {
    "id": "소요산",
    "name": "소요산역",
    "aliases": [
      "소요산"
    ],
    "lines": [
      "경원선"
    ],
    "latitude": 37.9481,
    "longitude": 127.061034
  },
  {
    "id": "솔밭공원",
    "name": "솔밭공원역",
    "aliases": [
      "솔밭공원"
    ],
    "lines": [
      "우이신설선"
    ],
    "latitude": 37.65603,
    "longitude": 127.013273
  },
  {
    "id": "솔샘",
    "name": "솔샘역",
    "aliases": [
      "솔샘"
    ],
    "lines": [
      "우이신설선"
    ],
    "latitude": 37.620238,
    "longitude": 127.013626
  },
  {
    "id": "송내",
    "name": "송내역",
    "aliases": [
      "송내"
    ],
    "lines": [
      "경인선"
    ],
    "latitude": 37.4876,
    "longitude": 126.753664
  },
  {
    "id": "송도달빛축제공원",
    "name": "송도달빛축제공원역",
    "aliases": [
      "송도달빛축제공원"
    ],
    "lines": [
      "인천1호선"
    ],
    "latitude": 37.407143,
    "longitude": 126.62597
  },
  {
    "id": "송도",
    "name": "송도역",
    "aliases": [
      "송도"
    ],
    "lines": [
      "수인선"
    ],
    "latitude": 37.428514,
    "longitude": 126.657772
  },
  {
    "id": "송산",
    "name": "송산역",
    "aliases": [
      "송산"
    ],
    "lines": [
      "의정부선"
    ],
    "latitude": 37.737279,
    "longitude": 127.087159
  },
  {
    "id": "송정",
    "name": "송정역",
    "aliases": [
      "송정"
    ],
    "lines": [
      "5호선"
    ],
    "latitude": 37.561184,
    "longitude": 126.811973
  },
  {
    "id": "송탄",
    "name": "송탄역",
    "aliases": [
      "송탄"
    ],
    "lines": [
      "경부선"
    ],
    "latitude": 37.075696,
    "longitude": 127.054301
  },
  {
    "id": "송파나루",
    "name": "송파나루역",
    "aliases": [
      "송파나루"
    ],
    "lines": [
      "9호선(연장)"
    ],
    "latitude": 37.510372,
    "longitude": 127.112216
  },
  {
    "id": "송파",
    "name": "송파역",
    "aliases": [
      "송파"
    ],
    "lines": [
      "8호선"
    ],
    "latitude": 37.499703,
    "longitude": 127.112183
  },
  {
    "id": "수내",
    "name": "수내역",
    "aliases": [
      "수내"
    ],
    "lines": [
      "분당선"
    ],
    "latitude": 37.378455,
    "longitude": 127.114322
  },
  {
    "id": "수락산",
    "name": "수락산역",
    "aliases": [
      "수락산"
    ],
    "lines": [
      "7호선"
    ],
    "latitude": 37.67785,
    "longitude": 127.055315
  },
  {
    "id": "수리산",
    "name": "수리산역",
    "aliases": [
      "수리산"
    ],
    "lines": [
      "안산선"
    ],
    "latitude": 37.349801,
    "longitude": 126.925365
  },
  {
    "id": "수색",
    "name": "수색역",
    "aliases": [
      "수색"
    ],
    "lines": [
      "경의중앙선"
    ],
    "latitude": 37.580842,
    "longitude": 126.895611
  },
  {
    "id": "수서",
    "name": "수서역",
    "aliases": [
      "수서"
    ],
    "lines": [
      "3호선",
      "분당선",
      "수도권광역급행철도"
    ],
    "latitude": 37.487073,
    "longitude": 127.101646
  },
  {
    "id": "수원시청",
    "name": "수원시청역",
    "aliases": [
      "수원시청"
    ],
    "lines": [
      "분당선"
    ],
    "latitude": 37.261911,
    "longitude": 127.030736
  },
  {
    "id": "수원",
    "name": "수원역",
    "aliases": [
      "수원"
    ],
    "lines": [
      "경부선",
      "분당선"
    ],
    "latitude": 37.266132,
    "longitude": 126.999492
  },
  {
    "id": "수유_강북구청",
    "name": "수유(강북구청)역",
    "aliases": [
      "수유(강북구청)"
    ],
    "lines": [
      "4호선"
    ],
    "latitude": 37.638052,
    "longitude": 127.025732
  },
  {
    "id": "수지구청",
    "name": "수지구청역",
    "aliases": [
      "수지구청"
    ],
    "lines": [
      "신분당선(연장)"
    ],
    "latitude": 37.322702,
    "longitude": 127.095026
  },
  {
    "id": "수진",
    "name": "수진역",
    "aliases": [
      "수진"
    ],
    "lines": [
      "8호선"
    ],
    "latitude": 37.437428,
    "longitude": 127.140722
  },
  {
    "id": "숙대입구_갈월",
    "name": "숙대입구(갈월)역",
    "aliases": [
      "숙대입구(갈월)"
    ],
    "lines": [
      "4호선"
    ],
    "latitude": 37.54456,
    "longitude": 126.972106
  },
  {
    "id": "숭실대입구_살피재",
    "name": "숭실대입구(살피재)역",
    "aliases": [
      "숭실대입구(살피재)"
    ],
    "lines": [
      "7호선"
    ],
    "latitude": 37.496029,
    "longitude": 126.953822
  },
  {
    "id": "숭의",
    "name": "숭의역",
    "aliases": [
      "숭의"
    ],
    "lines": [
      "수인선"
    ],
    "latitude": 37.460789,
    "longitude": 126.638297
  },
  {
    "id": "시민공원_문화창작지대",
    "name": "시민공원(문화창작지대)역",
    "aliases": [
      "시민공원(문화창작지대)"
    ],
    "lines": [
      "인천2호선"
    ],
    "latitude": 37.458335,
    "longitude": 126.681192
  },
  {
    "id": "시청_용인대",
    "name": "시청.용인대역",
    "aliases": [
      "시청.용인대"
    ],
    "lines": [
      "에버라인선"
    ],
    "latitude": 37.239151,
    "longitude": 127.178406
  },
  {
    "id": "시청",
    "name": "시청역",
    "aliases": [
      "시청"
    ],
    "lines": [
      "1호선",
      "2호선"
    ],
    "latitude": 37.564651,
    "longitude": 126.976249
  },
  {
    "id": "시흥능곡",
    "name": "시흥능곡역",
    "aliases": [
      "시흥능곡"
    ],
    "lines": [
      "서해선"
    ],
    "latitude": 37.369864,
    "longitude": 126.808573
  },
  {
    "id": "시흥대야",
    "name": "시흥대야역",
    "aliases": [
      "시흥대야"
    ],
    "lines": [
      "서해선"
    ],
    "latitude": 37.450145,
    "longitude": 126.793041
  },
  {
    "id": "시흥시청",
    "name": "시흥시청역",
    "aliases": [
      "시흥시청"
    ],
    "lines": [
      "서해선"
    ],
    "latitude": 37.382223,
    "longitude": 126.805625
  },
  {
    "id": "신갈",
    "name": "신갈역",
    "aliases": [
      "신갈"
    ],
    "lines": [
      "분당선"
    ],
    "latitude": 37.286102,
    "longitude": 127.111313
  },
  {
    "id": "신검단중앙",
    "name": "신검단중앙역",
    "aliases": [
      "신검단중앙"
    ],
    "lines": [
      "인천1호선"
    ],
    "latitude": 37.602676,
    "longitude": 126.698527
  },
  {
    "id": "신금호",
    "name": "신금호역",
    "aliases": [
      "신금호"
    ],
    "lines": [
      "5호선"
    ],
    "latitude": 37.554548,
    "longitude": 127.020331
  },
  {
    "id": "신길",
    "name": "신길역",
    "aliases": [
      "신길"
    ],
    "lines": [
      "5호선",
      "경부선"
    ],
    "latitude": 37.517243,
    "longitude": 126.916352
  },
  {
    "id": "신길온천",
    "name": "신길온천역",
    "aliases": [
      "신길온천"
    ],
    "lines": [
      "안산선"
    ],
    "latitude": 37.338212,
    "longitude": 126.765844
  },
  {
    "id": "신내",
    "name": "신내역",
    "aliases": [
      "신내"
    ],
    "lines": [
      "6호선",
      "경춘선"
    ],
    "latitude": 37.613031,
    "longitude": 127.102724
  },
  {
    "id": "신논현",
    "name": "신논현역",
    "aliases": [
      "신논현"
    ],
    "lines": [
      "9호선",
      "신분당선(연장2)"
    ],
    "latitude": 37.504598,
    "longitude": 127.02506
  },
  {
    "id": "신답",
    "name": "신답역",
    "aliases": [
      "신답"
    ],
    "lines": [
      "2호선"
    ],
    "latitude": 37.57004,
    "longitude": 127.046481
  },
  {
    "id": "신당",
    "name": "신당역",
    "aliases": [
      "신당"
    ],
    "lines": [
      "2호선",
      "6호선"
    ],
    "latitude": 37.565897,
    "longitude": 127.01788
  },
  {
    "id": "신대방삼거리",
    "name": "신대방삼거리역",
    "aliases": [
      "신대방삼거리"
    ],
    "lines": [
      "7호선"
    ],
    "latitude": 37.499701,
    "longitude": 126.928276
  },
  {
    "id": "신대방",
    "name": "신대방역",
    "aliases": [
      "신대방"
    ],
    "lines": [
      "2호선"
    ],
    "latitude": 37.487462,
    "longitude": 126.913149
  },
  {
    "id": "신도림",
    "name": "신도림역",
    "aliases": [
      "신도림"
    ],
    "lines": [
      "2호선",
      "경부선"
    ],
    "latitude": 37.508874,
    "longitude": 126.891114
  },
  {
    "id": "신둔도예촌",
    "name": "신둔도예촌역",
    "aliases": [
      "신둔도예촌"
    ],
    "lines": [
      "경강선"
    ],
    "latitude": 37.317185,
    "longitude": 127.40476
  },
  {
    "id": "신림",
    "name": "신림역",
    "aliases": [
      "신림"
    ],
    "lines": [
      "2호선",
      "신림선"
    ],
    "latitude": 37.484564,
    "longitude": 126.929665
  },
  {
    "id": "신목동",
    "name": "신목동역",
    "aliases": [
      "신목동"
    ],
    "lines": [
      "9호선"
    ],
    "latitude": 37.544277,
    "longitude": 126.88308
  },
  {
    "id": "신반포",
    "name": "신반포역",
    "aliases": [
      "신반포"
    ],
    "lines": [
      "9호선"
    ],
    "latitude": 37.503415,
    "longitude": 126.995925
  },
  {
    "id": "신방화",
    "name": "신방화역",
    "aliases": [
      "신방화"
    ],
    "lines": [
      "9호선"
    ],
    "latitude": 37.567532,
    "longitude": 126.816601
  },
  {
    "id": "신사",
    "name": "신사역",
    "aliases": [
      "신사"
    ],
    "lines": [
      "3호선",
      "신분당선(연장2)"
    ],
    "latitude": 37.516334,
    "longitude": 127.020114
  },
  {
    "id": "신설동",
    "name": "신설동역",
    "aliases": [
      "신설동"
    ],
    "lines": [
      "1호선",
      "2호선",
      "우이신설선"
    ],
    "latitude": 37.57563,
    "longitude": 127.024269
  },
  {
    "id": "신연수",
    "name": "신연수역",
    "aliases": [
      "신연수"
    ],
    "lines": [
      "인천1호선"
    ],
    "latitude": 37.41804,
    "longitude": 126.693863
  },
  {
    "id": "신용산",
    "name": "신용산역",
    "aliases": [
      "신용산"
    ],
    "lines": [
      "4호선"
    ],
    "latitude": 37.52917,
    "longitude": 126.967894
  },
  {
    "id": "신원",
    "name": "신원역",
    "aliases": [
      "신원"
    ],
    "lines": [
      "중앙선"
    ],
    "latitude": 37.525545,
    "longitude": 127.372921
  },
  {
    "id": "신이문",
    "name": "신이문역",
    "aliases": [
      "신이문"
    ],
    "lines": [
      "경원선"
    ],
    "latitude": 37.601854,
    "longitude": 127.067325
  },
  {
    "id": "신정_은행정",
    "name": "신정(은행정)역",
    "aliases": [
      "신정(은행정)"
    ],
    "lines": [
      "5호선"
    ],
    "latitude": 37.524997,
    "longitude": 126.856191
  },
  {
    "id": "신정네거리",
    "name": "신정네거리역",
    "aliases": [
      "신정네거리"
    ],
    "lines": [
      "2호선"
    ],
    "latitude": 37.520074,
    "longitude": 126.852912
  },
  {
    "id": "신중동",
    "name": "신중동역",
    "aliases": [
      "신중동"
    ],
    "lines": [
      "7호선",
      "7호선(인천)"
    ],
    "latitude": 37.502934,
    "longitude": 126.77581
  },
  {
    "id": "신창_순천향대",
    "name": "신창(순천향대)역",
    "aliases": [
      "신창(순천향대)"
    ],
    "lines": [
      "장항선"
    ],
    "latitude": 36.769502,
    "longitude": 126.951108
  },
  {
    "id": "신천",
    "name": "신천역",
    "aliases": [
      "신천"
    ],
    "lines": [
      "서해선"
    ],
    "latitude": 37.439066,
    "longitude": 126.786788
  },
  {
    "id": "신촌",
    "name": "신촌역",
    "aliases": [
      "신촌"
    ],
    "lines": [
      "2호선",
      "경의중앙선"
    ],
    "latitude": 37.557432,
    "longitude": 126.939762
  },
  {
    "id": "신포",
    "name": "신포역",
    "aliases": [
      "신포"
    ],
    "lines": [
      "수인선"
    ],
    "latitude": 37.46874,
    "longitude": 126.623853
  },
  {
    "id": "신풍",
    "name": "신풍역",
    "aliases": [
      "신풍"
    ],
    "lines": [
      "7호선"
    ],
    "latitude": 37.50008,
    "longitude": 126.90993
  },
  {
    "id": "신현",
    "name": "신현역",
    "aliases": [
      "신현"
    ],
    "lines": [
      "서해선"
    ],
    "latitude": 37.409008,
    "longitude": 126.788017
  },
  {
    "id": "신흥",
    "name": "신흥역",
    "aliases": [
      "신흥"
    ],
    "lines": [
      "8호선"
    ],
    "latitude": 37.440918,
    "longitude": 127.147564
  },
  {
    "id": "쌍문",
    "name": "쌍문역",
    "aliases": [
      "쌍문"
    ],
    "lines": [
      "4호선"
    ],
    "latitude": 37.648627,
    "longitude": 127.034709
  },
  {
    "id": "쌍용_나사렛대",
    "name": "쌍용(나사렛대)역",
    "aliases": [
      "쌍용(나사렛대)"
    ],
    "lines": [
      "장항선"
    ],
    "latitude": 36.793759,
    "longitude": 127.1214
  },
  {
    "id": "아라_북부법원_검찰청",
    "name": "아라(북부법원·검찰청)역",
    "aliases": [
      "아라(북부법원·검찰청)"
    ],
    "lines": [
      "인천1호선"
    ],
    "latitude": 37.592259,
    "longitude": 126.713301
  },
  {
    "id": "아산",
    "name": "아산역",
    "aliases": [
      "아산"
    ],
    "lines": [
      "장항선"
    ],
    "latitude": 36.792053,
    "longitude": 127.104361
  },
  {
    "id": "아시아드경기장_공촌사거리",
    "name": "아시아드경기장(공촌사거리)역",
    "aliases": [
      "아시아드경기장(공촌사거리)"
    ],
    "lines": [
      "인천2호선"
    ],
    "latitude": 37.5517,
    "longitude": 126.677122
  },
  {
    "id": "아신",
    "name": "아신역",
    "aliases": [
      "아신"
    ],
    "lines": [
      "중앙선"
    ],
    "latitude": 37.51382,
    "longitude": 127.443173
  },
  {
    "id": "아차산_어린이대공원후문",
    "name": "아차산(어린이대공원후문)역",
    "aliases": [
      "아차산(어린이대공원후문)"
    ],
    "lines": [
      "5호선"
    ],
    "latitude": 37.551691,
    "longitude": 127.089761
  },
  {
    "id": "아현",
    "name": "아현역",
    "aliases": [
      "아현"
    ],
    "lines": [
      "2호선"
    ],
    "latitude": 37.557345,
    "longitude": 126.956141
  },
  {
    "id": "안국",
    "name": "안국역",
    "aliases": [
      "안국"
    ],
    "lines": [
      "3호선"
    ],
    "latitude": 37.576477,
    "longitude": 126.985443
  },
  {
    "id": "안산",
    "name": "안산역",
    "aliases": [
      "안산"
    ],
    "lines": [
      "안산선"
    ],
    "latitude": 37.327082,
    "longitude": 126.788532
  },
  {
    "id": "안암_고대병원앞",
    "name": "안암(고대병원앞)역",
    "aliases": [
      "안암(고대병원앞)"
    ],
    "lines": [
      "6호선"
    ],
    "latitude": 37.586272,
    "longitude": 127.029005
  },
  {
    "id": "안양",
    "name": "안양역",
    "aliases": [
      "안양"
    ],
    "lines": [
      "경부선"
    ],
    "latitude": 37.401592,
    "longitude": 126.922874
  },
  {
    "id": "암사",
    "name": "암사역",
    "aliases": [
      "암사"
    ],
    "lines": [
      "8호선"
    ],
    "latitude": 37.55021,
    "longitude": 127.127562
  },
  {
    "id": "암사역사공원",
    "name": "암사역사공원역",
    "aliases": [
      "암사역사공원"
    ],
    "lines": [
      "8호선"
    ],
    "latitude": 37.55695,
    "longitude": 127.13702
  },
  {
    "id": "압구정로데오",
    "name": "압구정로데오역",
    "aliases": [
      "압구정로데오"
    ],
    "lines": [
      "분당선"
    ],
    "latitude": 37.527381,
    "longitude": 127.040534
  },
  {
    "id": "압구정",
    "name": "압구정역",
    "aliases": [
      "압구정"
    ],
    "lines": [
      "3호선"
    ],
    "latitude": 37.527072,
    "longitude": 127.028461
  },
  {
    "id": "애오개",
    "name": "애오개역",
    "aliases": [
      "애오개"
    ],
    "lines": [
      "5호선"
    ],
    "latitude": 37.553736,
    "longitude": 126.95682
  },
  {
    "id": "야당",
    "name": "야당역",
    "aliases": [
      "야당"
    ],
    "lines": [
      "경의중앙선"
    ],
    "latitude": 37.712327,
    "longitude": 126.761356
  },
  {
    "id": "야목",
    "name": "야목역",
    "aliases": [
      "야목"
    ],
    "lines": [
      "수인선"
    ],
    "latitude": 37.264179,
    "longitude": 126.879483
  },
  {
    "id": "야탑",
    "name": "야탑역",
    "aliases": [
      "야탑"
    ],
    "lines": [
      "분당선"
    ],
    "latitude": 37.411185,
    "longitude": 127.128715
  },
  {
    "id": "약수",
    "name": "약수역",
    "aliases": [
      "약수"
    ],
    "lines": [
      "3호선",
      "6호선"
    ],
    "latitude": 37.554565,
    "longitude": 127.010449
  },
  {
    "id": "양수",
    "name": "양수역",
    "aliases": [
      "양수"
    ],
    "lines": [
      "중앙선"
    ],
    "latitude": 37.545981,
    "longitude": 127.329098
  },
  {
    "id": "양원",
    "name": "양원역",
    "aliases": [
      "양원"
    ],
    "lines": [
      "중앙선"
    ],
    "latitude": 37.606596,
    "longitude": 127.107906
  },
  {
    "id": "양재_서초구청",
    "name": "양재(서초구청)역",
    "aliases": [
      "양재(서초구청)"
    ],
    "lines": [
      "3호선",
      "신분당선"
    ],
    "latitude": 37.484143,
    "longitude": 127.034278
  },
  {
    "id": "양재시민의숲_매헌",
    "name": "양재시민의숲(매헌)역",
    "aliases": [
      "양재시민의숲(매헌)"
    ],
    "lines": [
      "신분당선"
    ],
    "latitude": 37.470023,
    "longitude": 127.03842
  },
  {
    "id": "양정",
    "name": "양정역",
    "aliases": [
      "양정"
    ],
    "lines": [
      "중앙선"
    ],
    "latitude": 37.60533,
    "longitude": 127.19364
  },
  {
    "id": "양주",
    "name": "양주역",
    "aliases": [
      "양주"
    ],
    "lines": [
      "경원선"
    ],
    "latitude": 37.774381,
    "longitude": 127.044708
  },
  {
    "id": "양천구청",
    "name": "양천구청역",
    "aliases": [
      "양천구청"
    ],
    "lines": [
      "2호선"
    ],
    "latitude": 37.512398,
    "longitude": 126.865819
  },
  {
    "id": "양천향교",
    "name": "양천향교역",
    "aliases": [
      "양천향교"
    ],
    "lines": [
      "9호선"
    ],
    "latitude": 37.568381,
    "longitude": 126.841333
  },
  {
    "id": "양촌",
    "name": "양촌역",
    "aliases": [
      "양촌"
    ],
    "lines": [
      "김포골드라인"
    ],
    "latitude": 37.642379,
    "longitude": 126.614309
  },
  {
    "id": "양평",
    "name": "양평역",
    "aliases": [
      "양평"
    ],
    "lines": [
      "5호선",
      "중앙선"
    ],
    "latitude": 37.509171,
    "longitude": 127.188983
  },
  {
    "id": "어룡",
    "name": "어룡역",
    "aliases": [
      "어룡"
    ],
    "lines": [
      "의정부선"
    ],
    "latitude": 37.742802,
    "longitude": 127.085035
  },
  {
    "id": "어린이대공원_세종대",
    "name": "어린이대공원(세종대)역",
    "aliases": [
      "어린이대공원(세종대)"
    ],
    "lines": [
      "7호선"
    ],
    "latitude": 37.548014,
    "longitude": 127.074658
  },
  {
    "id": "어정",
    "name": "어정역",
    "aliases": [
      "어정"
    ],
    "lines": [
      "에버라인선"
    ],
    "latitude": 37.274917,
    "longitude": 127.143714
  },
  {
    "id": "어천",
    "name": "어천역",
    "aliases": [
      "어천"
    ],
    "lines": [
      "수인선"
    ],
    "latitude": 37.250102,
    "longitude": 126.90879
  },
  {
    "id": "언주",
    "name": "언주역",
    "aliases": [
      "언주"
    ],
    "lines": [
      "9호선(연장)"
    ],
    "latitude": 37.507287,
    "longitude": 127.033868
  },
  {
    "id": "여의나루",
    "name": "여의나루역",
    "aliases": [
      "여의나루"
    ],
    "lines": [
      "5호선"
    ],
    "latitude": 37.527098,
    "longitude": 126.932901
  },
  {
    "id": "여의도",
    "name": "여의도역",
    "aliases": [
      "여의도"
    ],
    "lines": [
      "5호선",
      "9호선"
    ],
    "latitude": 37.521754,
    "longitude": 126.924194
  },
  {
    "id": "여주",
    "name": "여주역",
    "aliases": [
      "여주"
    ],
    "lines": [
      "경강선"
    ],
    "latitude": 37.282308,
    "longitude": 127.628816
  },
  {
    "id": "역곡",
    "name": "역곡역",
    "aliases": [
      "역곡"
    ],
    "lines": [
      "경인선"
    ],
    "latitude": 37.485178,
    "longitude": 126.811502
  },
  {
    "id": "역삼",
    "name": "역삼역",
    "aliases": [
      "역삼"
    ],
    "lines": [
      "2호선"
    ],
    "latitude": 37.500622,
    "longitude": 127.036456
  },
  {
    "id": "역촌",
    "name": "역촌역",
    "aliases": [
      "역촌"
    ],
    "lines": [
      "6호선"
    ],
    "latitude": 37.606021,
    "longitude": 126.922744
  },
  {
    "id": "연수",
    "name": "연수역",
    "aliases": [
      "연수"
    ],
    "lines": [
      "수인선"
    ],
    "latitude": 37.417804,
    "longitude": 126.67894
  },
  {
    "id": "연신내",
    "name": "연신내역",
    "aliases": [
      "연신내"
    ],
    "lines": [
      "3호선",
      "6호선",
      "수도권광역급행철도"
    ],
    "latitude": 37.618882,
    "longitude": 126.920988
  },
  {
    "id": "연천",
    "name": "연천역",
    "aliases": [
      "연천"
    ],
    "lines": [
      "경원선"
    ],
    "latitude": 38.10073,
    "longitude": 127.07372
  },
  {
    "id": "염창",
    "name": "염창역",
    "aliases": [
      "염창"
    ],
    "lines": [
      "9호선"
    ],
    "latitude": 37.546936,
    "longitude": 126.874916
  },
  {
    "id": "영등포구청",
    "name": "영등포구청역",
    "aliases": [
      "영등포구청"
    ],
    "lines": [
      "2호선",
      "5호선"
    ],
    "latitude": 37.524953,
    "longitude": 126.89582
  },
  {
    "id": "영등포시장",
    "name": "영등포시장역",
    "aliases": [
      "영등포시장"
    ],
    "lines": [
      "5호선"
    ],
    "latitude": 37.522669,
    "longitude": 126.905139
  },
  {
    "id": "영등포",
    "name": "영등포역",
    "aliases": [
      "영등포"
    ],
    "lines": [
      "경부선"
    ],
    "latitude": 37.515504,
    "longitude": 126.907628
  },
  {
    "id": "영종",
    "name": "영종역",
    "aliases": [
      "영종"
    ],
    "lines": [
      "공항철도1호선"
    ],
    "latitude": 37.51202,
    "longitude": 126.524254
  },
  {
    "id": "영통",
    "name": "영통역",
    "aliases": [
      "영통"
    ],
    "lines": [
      "분당선"
    ],
    "latitude": 37.251568,
    "longitude": 127.071394
  },
  {
    "id": "예술회관",
    "name": "예술회관역",
    "aliases": [
      "예술회관"
    ],
    "lines": [
      "인천1호선"
    ],
    "latitude": 37.449396,
    "longitude": 126.701012
  },
  {
    "id": "오금",
    "name": "오금역",
    "aliases": [
      "오금"
    ],
    "lines": [
      "3호선",
      "5호선"
    ],
    "latitude": 37.502093,
    "longitude": 127.128129
  },
  {
    "id": "오남",
    "name": "오남역",
    "aliases": [
      "오남"
    ],
    "lines": [
      "진접선"
    ],
    "latitude": 37.705,
    "longitude": 127.19281
  },
  {
    "id": "오류동",
    "name": "오류동역",
    "aliases": [
      "오류동"
    ],
    "lines": [
      "경인선"
    ],
    "latitude": 37.494526,
    "longitude": 126.845365
  },
  {
    "id": "오리",
    "name": "오리역",
    "aliases": [
      "오리"
    ],
    "lines": [
      "분당선"
    ],
    "latitude": 37.339824,
    "longitude": 127.108942
  },
  {
    "id": "오목교_목동운동장앞",
    "name": "오목교(목동운동장앞)역",
    "aliases": [
      "오목교(목동운동장앞)"
    ],
    "lines": [
      "5호선"
    ],
    "latitude": 37.524496,
    "longitude": 126.875181
  },
  {
    "id": "오목천",
    "name": "오목천역",
    "aliases": [
      "오목천"
    ],
    "lines": [
      "수인선"
    ],
    "latitude": 37.24304,
    "longitude": 126.963676
  },
  {
    "id": "오빈",
    "name": "오빈역",
    "aliases": [
      "오빈"
    ],
    "lines": [
      "중앙선"
    ],
    "latitude": 37.506062,
    "longitude": 127.473868
  },
  {
    "id": "오산대",
    "name": "오산대역",
    "aliases": [
      "오산대"
    ],
    "lines": [
      "경부선"
    ],
    "latitude": 37.168953,
    "longitude": 127.063197
  },
  {
    "id": "오산",
    "name": "오산역",
    "aliases": [
      "오산"
    ],
    "lines": [
      "경부선"
    ],
    "latitude": 37.145885,
    "longitude": 127.06672
  },
  {
    "id": "오이도",
    "name": "오이도역",
    "aliases": [
      "오이도"
    ],
    "lines": [
      "안산선"
    ],
    "latitude": 37.362357,
    "longitude": 126.738714
  },
  {
    "id": "옥수",
    "name": "옥수역",
    "aliases": [
      "옥수"
    ],
    "lines": [
      "3호선",
      "경원선"
    ],
    "latitude": 37.541065,
    "longitude": 127.01797
  },
  {
    "id": "온수_성공회대입구",
    "name": "온수(성공회대입구)역",
    "aliases": [
      "온수(성공회대입구)"
    ],
    "lines": [
      "7호선",
      "경인선"
    ],
    "latitude": 37.492262,
    "longitude": 126.823555
  },
  {
    "id": "온양온천",
    "name": "온양온천역",
    "aliases": [
      "온양온천"
    ],
    "lines": [
      "장항선"
    ],
    "latitude": 36.780483,
    "longitude": 127.003249
  },
  {
    "id": "올림픽공원_한국체대",
    "name": "올림픽공원(한국체대)역",
    "aliases": [
      "올림픽공원(한국체대)"
    ],
    "lines": [
      "5호선",
      "9호선(연장)"
    ],
    "latitude": 37.516235,
    "longitude": 127.130606
  },
  {
    "id": "완정",
    "name": "완정역",
    "aliases": [
      "완정"
    ],
    "lines": [
      "인천2호선"
    ],
    "latitude": 37.592928,
    "longitude": 126.673203
  },
  {
    "id": "왕길",
    "name": "왕길역",
    "aliases": [
      "왕길"
    ],
    "lines": [
      "인천2호선"
    ],
    "latitude": 37.59518,
    "longitude": 126.642696
  },
  {
    "id": "왕십리_성동구청",
    "name": "왕십리(성동구청)역",
    "aliases": [
      "왕십리(성동구청)"
    ],
    "lines": [
      "2호선",
      "5호선",
      "경원선"
    ],
    "latitude": 37.561635,
    "longitude": 127.037455
  },
  {
    "id": "외대앞",
    "name": "외대앞역",
    "aliases": [
      "외대앞"
    ],
    "lines": [
      "경원선"
    ],
    "latitude": 37.596073,
    "longitude": 127.063549
  },
  {
    "id": "용답",
    "name": "용답역",
    "aliases": [
      "용답"
    ],
    "lines": [
      "2호선"
    ],
    "latitude": 37.561904,
    "longitude": 127.050899
  },
  {
    "id": "용두_동대문구청",
    "name": "용두(동대문구청)역",
    "aliases": [
      "용두(동대문구청)"
    ],
    "lines": [
      "2호선"
    ],
    "latitude": 37.574028,
    "longitude": 127.038091
  },
  {
    "id": "용마산",
    "name": "용마산역",
    "aliases": [
      "용마산"
    ],
    "lines": [
      "7호선"
    ],
    "latitude": 37.573647,
    "longitude": 127.086727
  },
  {
    "id": "용문",
    "name": "용문역",
    "aliases": [
      "용문"
    ],
    "lines": [
      "중앙선"
    ],
    "latitude": 37.48223,
    "longitude": 127.594647
  },
  {
    "id": "용산",
    "name": "용산역",
    "aliases": [
      "용산"
    ],
    "lines": [
      "경부선"
    ],
    "latitude": 37.529849,
    "longitude": 126.964561
  },
  {
    "id": "우장산",
    "name": "우장산역",
    "aliases": [
      "우장산"
    ],
    "lines": [
      "5호선"
    ],
    "latitude": 37.548768,
    "longitude": 126.836318
  },
  {
    "id": "운길산",
    "name": "운길산역",
    "aliases": [
      "운길산"
    ],
    "lines": [
      "중앙선"
    ],
    "latitude": 37.554669,
    "longitude": 127.310115
  },
  {
    "id": "운동장_송담대",
    "name": "운동장.송담대역",
    "aliases": [
      "운동장.송담대"
    ],
    "lines": [
      "에버라인선"
    ],
    "latitude": 37.237845,
    "longitude": 127.209198
  },
  {
    "id": "운서",
    "name": "운서역",
    "aliases": [
      "운서"
    ],
    "lines": [
      "공항철도1호선"
    ],
    "latitude": 37.492904,
    "longitude": 126.49379
  },
  {
    "id": "운양",
    "name": "운양역",
    "aliases": [
      "운양"
    ],
    "lines": [
      "김포골드라인"
    ],
    "latitude": 37.653867,
    "longitude": 126.68393
  },
  {
    "id": "운연_서창",
    "name": "운연(서창)역",
    "aliases": [
      "운연(서창)"
    ],
    "lines": [
      "인천2호선"
    ],
    "latitude": 37.440127,
    "longitude": 126.75997
  },
  {
    "id": "운정",
    "name": "운정역",
    "aliases": [
      "운정"
    ],
    "lines": [
      "경의중앙선",
      "수도권광역급행철도"
    ],
    "latitude": 37.720983,
    "longitude": 126.747833
  },
  {
    "id": "운천",
    "name": "운천역",
    "aliases": [
      "운천"
    ],
    "lines": [
      "경의중앙선"
    ],
    "latitude": 37.879942,
    "longitude": 126.769999
  },
  {
    "id": "원곡",
    "name": "원곡역",
    "aliases": [
      "원곡"
    ],
    "lines": [
      "서해선"
    ],
    "latitude": 37.31321,
    "longitude": 126.796261
  },
  {
    "id": "원당",
    "name": "원당역",
    "aliases": [
      "원당"
    ],
    "lines": [
      "일산선"
    ],
    "latitude": 37.653324,
    "longitude": 126.843041
  },
  {
    "id": "원덕",
    "name": "원덕역",
    "aliases": [
      "원덕"
    ],
    "lines": [
      "중앙선"
    ],
    "latitude": 37.468672,
    "longitude": 127.547076
  },
  {
    "id": "원시",
    "name": "원시역",
    "aliases": [
      "원시"
    ],
    "lines": [
      "서해선"
    ],
    "latitude": 37.302371,
    "longitude": 126.786691
  },
  {
    "id": "원인재",
    "name": "원인재역",
    "aliases": [
      "원인재"
    ],
    "lines": [
      "수인선",
      "인천1호선"
    ],
    "latitude": 37.412691,
    "longitude": 126.687259
  },
  {
    "id": "원종",
    "name": "원종역",
    "aliases": [
      "원종"
    ],
    "lines": [
      "서해선"
    ],
    "latitude": 37.5239,
    "longitude": 126.8049
  },
  {
    "id": "원흥",
    "name": "원흥역",
    "aliases": [
      "원흥"
    ],
    "lines": [
      "일산선"
    ],
    "latitude": 37.650658,
    "longitude": 126.872642
  },
  {
    "id": "월계",
    "name": "월계역",
    "aliases": [
      "월계"
    ],
    "lines": [
      "경원선"
    ],
    "latitude": 37.633212,
    "longitude": 127.058831
  },
  {
    "id": "월곡_동덕여대",
    "name": "월곡(동덕여대)역",
    "aliases": [
      "월곡(동덕여대)"
    ],
    "lines": [
      "6호선"
    ],
    "latitude": 37.601948,
    "longitude": 127.041518
  },
  {
    "id": "월곶",
    "name": "월곶역",
    "aliases": [
      "월곶"
    ],
    "lines": [
      "수인선"
    ],
    "latitude": 37.391769,
    "longitude": 126.742699
  },
  {
    "id": "월드컵경기장_성산",
    "name": "월드컵경기장(성산)역",
    "aliases": [
      "월드컵경기장(성산)"
    ],
    "lines": [
      "6호선"
    ],
    "latitude": 37.569532,
    "longitude": 126.899298
  },
  {
    "id": "월롱",
    "name": "월롱역",
    "aliases": [
      "월롱"
    ],
    "lines": [
      "경의중앙선"
    ],
    "latitude": 37.796188,
    "longitude": 126.792587
  },
  {
    "id": "을지로3가",
    "name": "을지로3가역",
    "aliases": [
      "을지로3가"
    ],
    "lines": [
      "2호선",
      "3호선"
    ],
    "latitude": 37.566489,
    "longitude": 126.992122
  },
  {
    "id": "을지로4가",
    "name": "을지로4가역",
    "aliases": [
      "을지로4가"
    ],
    "lines": [
      "2호선",
      "5호선"
    ],
    "latitude": 37.566974,
    "longitude": 126.997924
  },
  {
    "id": "을지로입구",
    "name": "을지로입구역",
    "aliases": [
      "을지로입구"
    ],
    "lines": [
      "2호선"
    ],
    "latitude": 37.566014,
    "longitude": 126.982618
  },
  {
    "id": "응봉",
    "name": "응봉역",
    "aliases": [
      "응봉"
    ],
    "lines": [
      "경원선"
    ],
    "latitude": 37.549946,
    "longitude": 127.034538
  },
  {
    "id": "응암",
    "name": "응암역",
    "aliases": [
      "응암"
    ],
    "lines": [
      "6호선"
    ],
    "latitude": 37.598605,
    "longitude": 126.915577
  },
  {
    "id": "의왕",
    "name": "의왕역",
    "aliases": [
      "의왕"
    ],
    "lines": [
      "경부선"
    ],
    "latitude": 37.320852,
    "longitude": 126.948217
  },
  {
    "id": "의정부시청",
    "name": "의정부시청역",
    "aliases": [
      "의정부시청"
    ],
    "lines": [
      "의정부선"
    ],
    "latitude": 37.739256,
    "longitude": 127.034781
  },
  {
    "id": "의정부",
    "name": "의정부역",
    "aliases": [
      "의정부"
    ],
    "lines": [
      "경원선"
    ],
    "latitude": 37.738415,
    "longitude": 127.045958
  },
  {
    "id": "의정부중앙",
    "name": "의정부중앙역",
    "aliases": [
      "의정부중앙"
    ],
    "lines": [
      "의정부선"
    ],
    "latitude": 37.743676,
    "longitude": 127.049565
  },
  {
    "id": "이대",
    "name": "이대역",
    "aliases": [
      "이대"
    ],
    "lines": [
      "2호선"
    ],
    "latitude": 37.556733,
    "longitude": 126.946013
  },
  {
    "id": "이매",
    "name": "이매역",
    "aliases": [
      "이매"
    ],
    "lines": [
      "경강선",
      "분당선"
    ],
    "latitude": 37.395013,
    "longitude": 127.128034
  },
  {
    "id": "이수",
    "name": "이수역",
    "aliases": [
      "이수"
    ],
    "lines": [
      "7호선"
    ],
    "latitude": 37.485196,
    "longitude": 126.981605
  },
  {
    "id": "이천",
    "name": "이천역",
    "aliases": [
      "이천"
    ],
    "lines": [
      "경강선"
    ],
    "latitude": 37.265579,
    "longitude": 127.44226
  },
  {
    "id": "이촌_국립중앙박물관",
    "name": "이촌(국립중앙박물관)역",
    "aliases": [
      "이촌(국립중앙박물관)"
    ],
    "lines": [
      "4호선",
      "경원선"
    ],
    "latitude": 37.522361,
    "longitude": 126.974069
  },
  {
    "id": "이태원",
    "name": "이태원역",
    "aliases": [
      "이태원"
    ],
    "lines": [
      "6호선"
    ],
    "latitude": 37.534488,
    "longitude": 126.994302
  },
  {
    "id": "인덕원",
    "name": "인덕원역",
    "aliases": [
      "인덕원"
    ],
    "lines": [
      "과천선"
    ],
    "latitude": 37.401553,
    "longitude": 126.976715
  },
  {
    "id": "인천가좌",
    "name": "인천가좌역",
    "aliases": [
      "인천가좌"
    ],
    "lines": [
      "인천2호선"
    ],
    "latitude": 37.4897,
    "longitude": 126.675208
  },
  {
    "id": "인천공항1터미널",
    "name": "인천공항1터미널역",
    "aliases": [
      "인천공항1터미널"
    ],
    "lines": [
      "공항철도1호선"
    ],
    "latitude": 37.447464,
    "longitude": 126.452508
  },
  {
    "id": "인천공항2터미널",
    "name": "인천공항2터미널역",
    "aliases": [
      "인천공항2터미널"
    ],
    "lines": [
      "공항철도1호선"
    ],
    "latitude": 37.460699,
    "longitude": 126.441442
  },
  {
    "id": "인천논현",
    "name": "인천논현역",
    "aliases": [
      "인천논현"
    ],
    "lines": [
      "수인선"
    ],
    "latitude": 37.400614,
    "longitude": 126.722478
  },
  {
    "id": "인천대공원",
    "name": "인천대공원역",
    "aliases": [
      "인천대공원"
    ],
    "lines": [
      "인천2호선"
    ],
    "latitude": 37.448769,
    "longitude": 126.752618
  },
  {
    "id": "인천대입구",
    "name": "인천대입구역",
    "aliases": [
      "인천대입구"
    ],
    "lines": [
      "인천1호선"
    ],
    "latitude": 37.386007,
    "longitude": 126.639484
  },
  {
    "id": "인천시청",
    "name": "인천시청역",
    "aliases": [
      "인천시청"
    ],
    "lines": [
      "인천1호선",
      "인천2호선"
    ],
    "latitude": 37.457048,
    "longitude": 126.701725
  },
  {
    "id": "인천",
    "name": "인천역",
    "aliases": [
      "인천"
    ],
    "lines": [
      "경인선",
      "수인선"
    ],
    "latitude": 37.476241,
    "longitude": 126.617064
  },
  {
    "id": "인천터미널",
    "name": "인천터미널역",
    "aliases": [
      "인천터미널"
    ],
    "lines": [
      "인천1호선"
    ],
    "latitude": 37.442383,
    "longitude": 126.699706
  },
  {
    "id": "인하대",
    "name": "인하대역",
    "aliases": [
      "인하대"
    ],
    "lines": [
      "수인선"
    ],
    "latitude": 37.448493,
    "longitude": 126.649619
  },
  {
    "id": "일산",
    "name": "일산역",
    "aliases": [
      "일산"
    ],
    "lines": [
      "경의중앙선"
    ],
    "latitude": 37.682077,
    "longitude": 126.769846
  },
  {
    "id": "일원",
    "name": "일원역",
    "aliases": [
      "일원"
    ],
    "lines": [
      "3호선"
    ],
    "latitude": 37.483681,
    "longitude": 127.08439
  },
  {
    "id": "임진강",
    "name": "임진강역",
    "aliases": [
      "임진강"
    ],
    "lines": [
      "경의중앙선"
    ],
    "latitude": 37.888421,
    "longitude": 126.746765
  },
  {
    "id": "임학",
    "name": "임학역",
    "aliases": [
      "임학"
    ],
    "lines": [
      "인천1호선"
    ],
    "latitude": 37.545059,
    "longitude": 126.738665
  },
  {
    "id": "작전",
    "name": "작전역",
    "aliases": [
      "작전"
    ],
    "lines": [
      "인천1호선"
    ],
    "latitude": 37.530415,
    "longitude": 126.722527
  },
  {
    "id": "잠실_송파구청",
    "name": "잠실(송파구청)역",
    "aliases": [
      "잠실(송파구청)"
    ],
    "lines": [
      "2호선",
      "8호선"
    ],
    "latitude": 37.513977,
    "longitude": 127.102249
  },
  {
    "id": "잠실나루",
    "name": "잠실나루역",
    "aliases": [
      "잠실나루"
    ],
    "lines": [
      "2호선"
    ],
    "latitude": 37.520733,
    "longitude": 127.10379
  },
  {
    "id": "잠실새내",
    "name": "잠실새내역",
    "aliases": [
      "잠실새내"
    ],
    "lines": [
      "2호선"
    ],
    "latitude": 37.511687,
    "longitude": 127.086162
  },
  {
    "id": "잠원",
    "name": "잠원역",
    "aliases": [
      "잠원"
    ],
    "lines": [
      "3호선"
    ],
    "latitude": 37.512759,
    "longitude": 127.01122
  },
  {
    "id": "장기",
    "name": "장기역",
    "aliases": [
      "장기"
    ],
    "lines": [
      "김포골드라인"
    ],
    "latitude": 37.643986,
    "longitude": 126.669017
  },
  {
    "id": "장승배기",
    "name": "장승배기역",
    "aliases": [
      "장승배기"
    ],
    "lines": [
      "7호선"
    ],
    "latitude": 37.504898,
    "longitude": 126.93915
  },
  {
    "id": "장암",
    "name": "장암역",
    "aliases": [
      "장암"
    ],
    "lines": [
      "7호선"
    ],
    "latitude": 37.700109,
    "longitude": 127.053196
  },
  {
    "id": "장자호수공원",
    "name": "장자호수공원역",
    "aliases": [
      "장자호수공원"
    ],
    "lines": [
      "별내선"
    ],
    "latitude": 37.58738,
    "longitude": 127.13794
  },
  {
    "id": "장지",
    "name": "장지역",
    "aliases": [
      "장지"
    ],
    "lines": [
      "8호선"
    ],
    "latitude": 37.478703,
    "longitude": 127.126191
  },
  {
    "id": "장한평",
    "name": "장한평역",
    "aliases": [
      "장한평"
    ],
    "lines": [
      "5호선"
    ],
    "latitude": 37.56144,
    "longitude": 127.064623
  },
  {
    "id": "전곡",
    "name": "전곡역",
    "aliases": [
      "전곡"
    ],
    "lines": [
      "경원선"
    ],
    "latitude": 38.02458,
    "longitude": 127.0718
  },
  {
    "id": "전대_에버랜드",
    "name": "전대.에버랜드역",
    "aliases": [
      "전대.에버랜드"
    ],
    "lines": [
      "에버라인선"
    ],
    "latitude": 37.285342,
    "longitude": 127.219561
  },
  {
    "id": "정릉",
    "name": "정릉역",
    "aliases": [
      "정릉"
    ],
    "lines": [
      "우이신설선"
    ],
    "latitude": 37.603133,
    "longitude": 127.013396
  },
  {
    "id": "정발산",
    "name": "정발산역",
    "aliases": [
      "정발산"
    ],
    "lines": [
      "일산선"
    ],
    "latitude": 37.659477,
    "longitude": 126.773359
  },
  {
    "id": "정부과천청사",
    "name": "정부과천청사역",
    "aliases": [
      "정부과천청사"
    ],
    "lines": [
      "과천선"
    ],
    "latitude": 37.426513,
    "longitude": 126.98978
  },
  {
    "id": "정왕",
    "name": "정왕역",
    "aliases": [
      "정왕"
    ],
    "lines": [
      "안산선"
    ],
    "latitude": 37.351735,
    "longitude": 126.742989
  },
  {
    "id": "정자",
    "name": "정자역",
    "aliases": [
      "정자"
    ],
    "lines": [
      "분당선",
      "신분당선"
    ],
    "latitude": 37.366546,
    "longitude": 127.108237
  },
  {
    "id": "제기동",
    "name": "제기동역",
    "aliases": [
      "제기동"
    ],
    "lines": [
      "1호선"
    ],
    "latitude": 37.578103,
    "longitude": 127.034893
  },
  {
    "id": "제물포",
    "name": "제물포역",
    "aliases": [
      "제물포"
    ],
    "lines": [
      "경인선"
    ],
    "latitude": 37.466769,
    "longitude": 126.656666
  },
  {
    "id": "종각",
    "name": "종각역",
    "aliases": [
      "종각"
    ],
    "lines": [
      "1호선"
    ],
    "latitude": 37.570161,
    "longitude": 126.982923
  },
  {
    "id": "종로3가",
    "name": "종로3가역",
    "aliases": [
      "종로3가"
    ],
    "lines": [
      "1호선",
      "3호선",
      "5호선"
    ],
    "latitude": 37.571517,
    "longitude": 126.991314
  },
  {
    "id": "종로5가",
    "name": "종로5가역",
    "aliases": [
      "종로5가"
    ],
    "lines": [
      "1호선"
    ],
    "latitude": 37.570926,
    "longitude": 127.001849
  },
  {
    "id": "종합운동장",
    "name": "종합운동장역",
    "aliases": [
      "종합운동장"
    ],
    "lines": [
      "2호선",
      "9호선(연장)"
    ],
    "latitude": 37.511224,
    "longitude": 127.07499
  },
  {
    "id": "주안국가산단",
    "name": "주안국가산단역",
    "aliases": [
      "주안국가산단"
    ],
    "lines": [
      "인천2호선"
    ],
    "latitude": 37.473703,
    "longitude": 126.68113
  },
  {
    "id": "주안",
    "name": "주안역",
    "aliases": [
      "주안"
    ],
    "lines": [
      "경인선",
      "인천2호선"
    ],
    "latitude": 37.465019,
    "longitude": 126.67942
  },
  {
    "id": "주엽",
    "name": "주엽역",
    "aliases": [
      "주엽"
    ],
    "lines": [
      "일산선"
    ],
    "latitude": 37.670072,
    "longitude": 126.761334
  },
  {
    "id": "죽전",
    "name": "죽전역",
    "aliases": [
      "죽전"
    ],
    "lines": [
      "분당선"
    ],
    "latitude": 37.324753,
    "longitude": 127.107395
  },
  {
    "id": "중계",
    "name": "중계역",
    "aliases": [
      "중계"
    ],
    "lines": [
      "7호선"
    ],
    "latitude": 37.644583,
    "longitude": 127.064303
  },
  {
    "id": "중곡",
    "name": "중곡역",
    "aliases": [
      "중곡"
    ],
    "lines": [
      "7호선"
    ],
    "latitude": 37.565923,
    "longitude": 127.08432
  },
  {
    "id": "중동",
    "name": "중동역",
    "aliases": [
      "중동"
    ],
    "lines": [
      "경인선"
    ],
    "latitude": 37.486562,
    "longitude": 126.764843
  },
  {
    "id": "중랑",
    "name": "중랑역",
    "aliases": [
      "중랑"
    ],
    "lines": [
      "중앙선"
    ],
    "latitude": 37.594917,
    "longitude": 127.076116
  },
  {
    "id": "중앙보훈병원",
    "name": "중앙보훈병원역",
    "aliases": [
      "중앙보훈병원"
    ],
    "lines": [
      "9호선(연장)"
    ],
    "latitude": 37.529191,
    "longitude": 127.148739
  },
  {
    "id": "중앙",
    "name": "중앙역",
    "aliases": [
      "중앙"
    ],
    "lines": [
      "안산선"
    ],
    "latitude": 37.315941,
    "longitude": 126.838573
  },